[{"id":"3951","name":"Abramowice 01","street":"ABRAMOWICKA","latitude":"51.196920000000","longitude":"22.586140000000"},{"id":"3952","name":"Abramowice 02","street":"ABRAMOWICKA","latitude":"51.197280000000","longitude":"22.586010000000"},{"id":"7801","name":"Abramowice Prywatne 01","street":"ABRAMOWICE PRYWATNE","latitude":"51.205430000000","longitude":"22.631990000000"},{"id":"7802","name":"Abramowice Prywatne 02","street":"ABRAMOWICE PRYWATNE","latitude":"51.205624000000","longitude":"22.632098000000"},{"id":"3631","name":"Abramowice Prywatne I 01","street":"ABRAMOWICE PRYWATNE","latitude":"51.204912000000","longitude":"22.623139000000"},{"id":"3632","name":"Abramowice Prywatne I 02","street":"ABRAMOWICE PRYWATNE","latitude":"51.205611110000","longitude":"22.632097220000"},{"id":"3922","name":"Abramowicka - posesja 102","street":"ABRAMOWICKA","latitude":"51.188944440000","longitude":"22.585577780000"},{"id":"3921","name":"Abramowicka - posesja 102 01","street":"ABRAMOWICKA","latitude":"51.189505560000","longitude":"22.585297220000"},{"id":"3941","name":"Abramowicka Dominów 01","street":"ABRAMOWICKA","latitude":"51.175083330000","longitude":"22.585577780000"},{"id":"3942","name":"Abramowicka Dominów 02","street":"ABRAMOWICKA","latitude":"51.175363890000","longitude":"22.585858330000"},{"id":"2141","name":"Andersa - cmentarz 01","street":"AL. ANDERSA","latitude":"51.259258330000","longitude":"22.579852780000"},{"id":"2142","name":"Andersa - cmentarz 02","street":"AL. ANDERSA","latitude":"51.259819440000","longitude":"22.578450000000"},{"id":"2143","name":"Andersa - cmentarz 03","street":"AL. ANDERSA","latitude":"51.260260000000","longitude":"22.575890000000"},{"id":"3451","name":"Arena Lublin","street":"LUBELSKIEGO LIPCA '80","latitude":"51.232062812103","longitude":"22.561047077179"},{"id":"3454","name":"Arena Lublin 01","street":"STADIONOWA","latitude":"51.232580099004","longitude":"22.561229467392"},{"id":"3452","name":"Arena Lublin 02 NŻ","street":"LUBELSKIEGO LIPCA 80","latitude":"51.232338251307","longitude":"22.562463283539"},{"id":"3453","name":"Arena Lublin 03 NŻ","street":"STADIONOWA","latitude":"51.232009067676","longitude":"22.561572790146"},{"id":"9411","name":"Barak NŻ 01","street":"BARAK","latitude":"51.285957000747","longitude":"22.466182708740"},{"id":"9412","name":"Barak NŻ 02","street":"BARAK","latitude":"51.286674984178","longitude":"22.464551925659"},{"id":"5781","name":"Bełżycka 01","street":"AL. KRAŚNICKA","latitude":"51.223680560000","longitude":"22.466947220000"},{"id":"5782","name":"Bełżycka 02","street":"AL. KRAŚNICKA","latitude":"51.224241670000","longitude":"22.468350000000"},{"id":"4721","name":"Betonowa 01","street":"KROCHMALNA","latitude":"51.224522220000","longitude":"22.548202780000"},{"id":"4722","name":"Betonowa 02","street":"KROCHMALNA","latitude":"51.224241670000","longitude":"22.547922220000"},{"id":"1741","name":"Biernackiego 01","street":"BIERNACKIEGO","latitude":"51.254640000000","longitude":"22.567340000000"},{"id":"1742","name":"Biernackiego 02","street":"BIERNACKIEGO","latitude":"51.254550000000","longitude":"22.567260000000"},{"id":"4581","name":"Biskupa Fulmana 01","street":"NAŁKOWSKICH","latitude":"51.199886110000","longitude":"22.541750000000"},{"id":"4582","name":"Biskupa Fulmana 02","street":"NAŁKOWSKICH","latitude":"51.200561110000","longitude":"22.542591670000"},{"id":"7871","name":"Biskupie Kolonia 01","street":"BISKUPIE KOLONIA","latitude":"51.257223520000","longitude":"22.662778580000"},{"id":"7872","name":"Biskupie Kolonia 02","street":"BISKUPIE KOLONIA","latitude":"51.257500700000","longitude":"22.660285380000"},{"id":"1661","name":"Bluszczowa 01","street":"DOŻYNKOWA","latitude":"51.278455000000","longitude":"22.587528000000"},{"id":"1662","name":"Bluszczowa 02","street":"DOŻYNKOWA","latitude":"51.278648000000","longitude":"22.589060000000"},{"id":"5541","name":"Bociania 01","street":"JANA PAWŁA II","latitude":"51.227888890000","longitude":"22.512063890000"},{"id":"5542","name":"Bociania 02","street":"JANA PAWŁA II","latitude":"51.227327780000","longitude":"22.511222220000"},{"id":"6751","name":"Bogdanówka 01","street":"WILLOWA","latitude":"51.267227780000","longitude":"22.514027780000"},{"id":"6752","name":"Bogdanówka 02","street":"WILLOWA","latitude":"51.267508330000","longitude":"22.512905560000"},{"id":"6111","name":"Bohaterów M. Cassino 01","street":"WOJCIECHOWSKA","latitude":"51.247080560000","longitude":"22.505891670000"},{"id":"6112","name":"Bohaterów M. Cassino 02","street":"BOHATERÓW M. CASSINO","latitude":"51.246519440000","longitude":"22.506452780000"},{"id":"6511","name":"Botaniczna 01","street":"AL. WARSZAWSKA","latitude":"51.257013890000","longitude":"22.515430560000"},{"id":"6512","name":"Botaniczna 02","street":"AL. WARSZAWSKA","latitude":"51.257094000000","longitude":"22.515231000000"},{"id":"2881","name":"Braci Krausse 01","street":"RATAJA","latitude":"51.229740000000","longitude":"22.648480000000"},{"id":"1111","name":"Braci Wieniawskich 01","street":"KONCERTOWA","latitude":"51.262625000000","longitude":"22.541750000000"},{"id":"1112","name":"Braci Wieniawskich 02","street":"KOSMOWSKIEJ","latitude":"51.260941670000","longitude":"22.540627780000"},{"id":"1031","name":"Brama Krakowska 01","street":"LUBARTOWSKA","latitude":"51.248202780000","longitude":"22.565991670000"},{"id":"1032","name":"Brama Krakowska 02","street":"KRÓLEWSKA","latitude":"51.246800000000","longitude":"22.566552780000"},{"id":"1033","name":"Brama Krakowska 03","street":"LUBARTOWSKA","latitude":"51.248483330000","longitude":"22.566272220000"},{"id":"1034","name":"Brama Krakowska 04","street":"KRÓLEWSKA","latitude":"51.246519440000","longitude":"22.566947220000"},{"id":"3052","name":"Brzegowa - wiadukt 02 NŻ","street":"BRZEGOWA","latitude":"51.234125207068","longitude":"22.657263278961"},{"id":"2891","name":"Brzegowa 01","street":"RATAJA","latitude":"51.228260000000","longitude":"22.654030000000"},{"id":"5401","name":"Brzeskiej 01","street":"ZANA","latitude":"51.235858330000","longitude":"22.535858330000"},{"id":"5402","name":"Brzeskiej 02","street":"ZANA","latitude":"51.235297220000","longitude":"22.536419440000"},{"id":"5471","name":"Brzeskiej II 01","street":"ZANA","latitude":"51.234810412298","longitude":"22.542014122010"},{"id":"5472","name":"Brzeskiej II 02","street":"ZANA","latitude":"51.234756671080","longitude":"22.540748119354"},{"id":"4121","name":"Budowlana 01","street":"ZEMBORZYCKA","latitude":"51.205330560000","longitude":"22.564027780000"},{"id":"4122","name":"Budowlana 02","street":"ZEMBORZYCKA","latitude":"51.204769440000","longitude":"22.563747220000"},{"id":"4123","name":"Budowlana 03","street":"BUDOWLANA","latitude":"51.206733330000","longitude":"22.564027780000"},{"id":"4124","name":"Budowlana 04","street":"BUDOWLANA","latitude":"51.206452780000","longitude":"22.564308330000"},{"id":"3301","name":"Bukowa 01","street":"DŁUGA","latitude":"51.228169440000","longitude":"22.581255560000"},{"id":"3302","name":"Bukowa 02","street":"DŁUGA","latitude":"51.228169440000","longitude":"22.581816670000"},{"id":"1651","name":"Bursaki 01","street":"BURSAKI","latitude":"51.271716670000","longitude":"22.570033330000"},{"id":"1652","name":"Bursaki 02","street":"BURSAKI","latitude":"51.272819000000","longitude":"22.570158000000"},{"id":"1971","name":"Bursaki II 01 NŻ","street":"DO DYSA","latitude":"51.275770000000","longitude":"22.569770000000"},{"id":"1972","name":"Bursaki II 02 NŻ","street":"DO DYSA","latitude":"51.275490000000","longitude":"22.571100000000"},{"id":"1621","name":"Ceramiczna 01","street":"ZWIĄZKOWA","latitude":"51.270033330000","longitude":"22.562625000000"},{"id":"1622","name":"Ceramiczna 02","street":"ZWIĄZKOWA","latitude":"51.269752780000","longitude":"22.564588890000"},{"id":"1721","name":"Chodźki - szpital 01","street":"CHODŹKI","latitude":"51.260941670000","longitude":"22.564588890000"},{"id":"1722","name":"Chodźki - szpital 02","street":"CHODŹKI","latitude":"51.260100000000","longitude":"22.565711110000"},{"id":"1723","name":"Chodźki - szpital 03","street":"GĘBALI","latitude":"51.260940857614","longitude":"22.564250975847"},{"id":"1724","name":"Chodźki - szpital 04","street":"CHODŹKI","latitude":"51.260941670000","longitude":"22.564027780000"},{"id":"1725","name":"Chodźki - szpital 05","street":"GĘBALI","latitude":"51.260761712924","longitude":"22.564260363579"},{"id":"1562","name":"Choiny - granica miasta NŻ","street":"CHOINY","latitude":"51.284480737866","longitude":"22.550393342972"},{"id":"1561","name":"Choiny - granica miasta NŻ 01","street":"CHOINY","latitude":"51.284749152829","longitude":"22.550328969956"},{"id":"4861","name":"Cienista 01","street":"CIENISTA","latitude":"51.168069440000","longitude":"22.499325000000"},{"id":"4862","name":"Cienista 02","street":"KRĘŻNICKA","latitude":"51.168630560000","longitude":"22.499886110000"},{"id":"4863","name":"Cienista 03","street":"KRĘŻNICKA","latitude":"51.167788890000","longitude":"22.498202780000"},{"id":"4261","name":"Ciepłownicza 01","street":"BUDOWLANA","latitude":"51.210100000000","longitude":"22.560661110000"},{"id":"4262","name":"Ciepłownicza 02","street":"BUDOWLANA","latitude":"51.211502780000","longitude":"22.558977780000"},{"id":"6311","name":"Cisowa 01","street":"NAŁĘCZOWSKA","latitude":"51.250280560000","longitude":"22.511222220000"},{"id":"6312","name":"Cisowa 02","street":"NAŁĘCZOWSKA","latitude":"51.250280560000","longitude":"22.510661110000"},{"id":"1251","name":"Czechowska 01","street":"LESZCZYŃSKIEGO","latitude":"51.251467164000","longitude":"22.549738884000"},{"id":"1252","name":"Czechowska 02","street":"CZECHOWSKA","latitude":"51.252084960000","longitude":"22.549610138000"},{"id":"1811","name":"Czwartek 01","street":"LUBARTOWSKA","latitude":"51.255330560000","longitude":"22.570313890000"},{"id":"1812","name":"Czwartek 02","street":"LUBARTOWSKA","latitude":"51.254488890000","longitude":"22.569472220000"},{"id":"8121","name":"Ćmiłów - kościół 01","street":"ĆMIŁÓW","latitude":"51.158977780000","longitude":"22.581816670000"},{"id":"8122","name":"Ćmiłów - kościół 02","street":"ĆMIŁÓW","latitude":"51.159258330000","longitude":"22.581816670000"},{"id":"8111","name":"Ćmiłów 01","street":"ĆMIŁÓW","latitude":"51.166552780000","longitude":"22.582377780000"},{"id":"8112","name":"Ćmiłów 02","street":"ĆMIŁÓW","latitude":"51.165430560000","longitude":"22.581816670000"},{"id":"2182","name":"Daszyńskiego 02","street":"DASZYŃSKIEGO","latitude":"51.262344440000","longitude":"22.598483330000"},{"id":"4322","name":"Dąbrowa 02","street":"DĄBROWA","latitude":"51.181816670000","longitude":"22.542311110000"},{"id":"9131","name":"Dąbrowica - sklep 01","street":"DĄBROWICA","latitude":"51.245116670000","longitude":"22.457855560000"},{"id":"9121","name":"Dąbrowica - warsztat 01","street":"DĄBROWICA","latitude":"51.246598000000","longitude":"22.464121000000"},{"id":"9312","name":"Dąbrowica 02","street":"DĄBROWICA","latitude":"51.266552780000","longitude":"22.462344440000"},{"id":"3721","name":"Dąbrowska 01","street":"KUNICKIEGO","latitude":"51.226486110000","longitude":"22.572838890000"},{"id":"3722","name":"Dąbrowska 02","street":"KUNICKIEGO","latitude":"51.225644440000","longitude":"22.573400000000"},{"id":"9401","name":"Dębówka 01","street":"DĘBÓWKA","latitude":"51.282427311501","longitude":"22.472341060639"},{"id":"9402","name":"Dębówka 02","street":"DĘBÓWKA","latitude":"51.281816670000","longitude":"22.472838890000"},{"id":"6581","name":"Dębówka PKS 01","street":"DĘBÓWKA","latitude":"51.278730560000","longitude":"22.478450000000"},{"id":"6582","name":"Dębówka PKS 02","street":"DĘBÓWKA","latitude":"51.277327780000","longitude":"22.480694440000"},{"id":"7611","name":"Długie - stolarnia 01","street":"DŁUGIE","latitude":"51.270875000000","longitude":"22.640347220000"},{"id":"7612","name":"Długie - stolarnia 02","street":"DŁUGIE","latitude":"51.270033330000","longitude":"22.638944440000"},{"id":"7621","name":"Długie 01","street":"DŁUGIE","latitude":"51.274555000000","longitude":"22.648261000000"},{"id":"7622","name":"Długie 02","street":"DŁUGIE","latitude":"51.273817000000","longitude":"22.646113000000"},{"id":"3162","name":"Dobrzańskiego 02","street":"DOBRZAŃSKIEGO","latitude":"51.226486110000","longitude":"22.622277780000"},{"id":"3271","name":"Dobrzańskiego II 01","street":"DROGA MĘCZENNIKÓW MAJDANKA","latitude":"51.220311000000","longitude":"22.621459000000"},{"id":"3272","name":"Dobrzańskiego II 02","street":"DROGA MĘCZENNIKÓW MAJDANKA","latitude":"51.220580000000","longitude":"22.621298000000"},{"id":"1171","name":"Dolna 3 Maja 01","street":"DOLNA 3 MAJA","latitude":"51.252600000000","longitude":"22.560420000000"},{"id":"3711","name":"Dom Kolejarza 01","street":"NOWY ŚWIAT","latitude":"51.228169440000","longitude":"22.571436110000"},{"id":"3712","name":"Dom Kolejarza 02","street":"KUNICKIEGO","latitude":"51.229572220000","longitude":"22.572277780000"},{"id":"4411","name":"Domeyki 01","street":"DIAMENTOWA","latitude":"51.205891670000","longitude":"22.552244440000"},{"id":"4412","name":"Domeyki 02","street":"DIAMENTOWA","latitude":"51.206172220000","longitude":"22.550000000000"},{"id":"3571","name":"Dominowska 01 NŻ","street":"GŁUSKA","latitude":"51.186982790993","longitude":"22.596495151520"},{"id":"3572","name":"Dominowska 02 NŻ","street":"GŁUSKA","latitude":"51.187130732595","longitude":"22.596849203110"},{"id":"8011","name":"Dominów - ogródki działkowe 01","street":"DOMINÓW","latitude":"51.179011110000","longitude":"22.599325000000"},{"id":"8012","name":"Dominów - ogródki działkowe 02","street":"DOMINÓW","latitude":"51.179011110000","longitude":"22.599605560000"},{"id":"8021","name":"Dominów - skrzyżowanie 01","street":"DOMINÓW","latitude":"51.173400000000","longitude":"22.600000000000"},{"id":"8022","name":"Dominów - skrzyżowanie 02","street":"DOMINÓW","latitude":"51.174392566000","longitude":"22.600378990000"},{"id":"8051","name":"Dominów - Urząd Gminy 01","street":"DOMINÓW","latitude":"51.171700219599","longitude":"22.596318125725"},{"id":"8052","name":"Dominów - Urząd Gminy 02","street":"DOMINÓW","latitude":"51.171755716149","longitude":"22.595883607865"},{"id":"8042","name":"Dominów 02","street":"DOMINÓW","latitude":"51.163747220000","longitude":"22.601683330000"},{"id":"2951","name":"Doświadczalna 01","street":"DOŚWIADCZALNA","latitude":"51.224166000000","longitude":"22.632603000000"},{"id":"2952","name":"Doświadczalna 02","street":"AL. WITOSA","latitude":"51.223961110000","longitude":"22.631255560000"},{"id":"2953","name":"Doświadczalna 03","street":"DOŚWIADCZALNA","latitude":"51.223400000000","longitude":"22.631536110000"},{"id":"2955","name":"Doświadczalna 05","street":"AL. WITOSA","latitude":"51.223131000000","longitude":"22.632779000000"},{"id":"1871","name":"Dożynkowa 01","street":"AL. SPÓŁDZIELCZOŚCI PRACY","latitude":"51.275644440000","longitude":"22.573961110000"},{"id":"1872","name":"Dożynkowa 02","street":"AL. SPÓŁDZIELCZOŚCI PRACY","latitude":"51.275083330000","longitude":"22.573400000000"},{"id":"1873","name":"Dożynkowa 03","street":"DOŻYNKOWA","latitude":"51.275576000000","longitude":"22.574833000000"},{"id":"1875","name":"Dożynkowa 05","street":"DO DYSA","latitude":"51.275690000000","longitude":"22.572760000000"},{"id":"3131","name":"Dulęby 01","street":"DROGA MĘCZENNIKÓW MAJDANKA","latitude":"51.229852780000","longitude":"22.594555560000"},{"id":"3132","name":"Dulęby 02","street":"DROGA MĘCZENNIKÓW MAJDANKA","latitude":"51.230694440000","longitude":"22.593433330000"},{"id":"3691","name":"Dworzec Gł. PKP - Kunickiego 01","street":"KUNICKIEGO","latitude":"51.231416718144","longitude":"22.571565830689"},{"id":"3692","name":"Dworzec Gł. PKP - Kunickiego 02","street":"KUNICKIEGO","latitude":"51.229579092365","longitude":"22.572323083878"},{"id":"3421","name":"Dworzec Główny PKP 01","street":"PLAC DWORCOWY","latitude":"51.231536110000","longitude":"22.566947220000"},{"id":"3422","name":"Dworzec Główny PKP 02","street":"PLAC DWORCOWY","latitude":"51.231816670000","longitude":"22.568350000000"},{"id":"3423","name":"Dworzec Główny PKP 03","street":"DWORCOWA","latitude":"51.232141000000","longitude":"22.567825000000"},{"id":"3424","name":"Dworzec Główny PKP 04","street":"PLAC DWORCOWY","latitude":"51.231536110000","longitude":"22.567508330000"},{"id":"3425","name":"Dworzec Główny PKP 05","street":"PLAC DWORCOWY","latitude":"51.231330000000","longitude":"22.567170000000"},{"id":"3426","name":"Dworzec Główny PKP 06","street":"PLAC DWORCOWY","latitude":"51.231536110000","longitude":"22.567508330000"},{"id":"1911","name":"Dworzec Główny PKS - Ruska 01","street":"RUSKA","latitude":"51.252805560000","longitude":"22.571997220000"},{"id":"1912","name":"Dworzec Główny PKS - Ruska 02","street":"RUSKA","latitude":"51.252805560000","longitude":"22.571716670000"},{"id":"1901","name":"Dworzec Główny PKS 01","street":"AL. TYSIĄCLECIA","latitude":"51.251402780000","longitude":"22.569472220000"},{"id":"1902","name":"Dworzec Główny PKS 02","street":"AL. TYSIĄCLECIA","latitude":"51.251402780000","longitude":"22.570875000000"},{"id":"1904","name":"Dworzec Główny PKS 04","street":"AL. TYSIĄCLECIA","latitude":"51.251402780000","longitude":"22.573961110000"},{"id":"2631","name":"Dworzec Północny 01","street":"GOSPODARCZA","latitude":"51.242591670000","longitude":"22.597361110000"},{"id":"2632","name":"Dworzec Północny 02","street":"GOSPODARCZA","latitude":"51.242872220000","longitude":"22.597080560000"},{"id":"2741","name":"Dworzec Towarowy PKP 01","street":"RATAJA","latitude":"51.235858330000","longitude":"22.625083330000"},{"id":"2742","name":"Dworzec Towarowy PKP 02","street":"RATAJA","latitude":"51.235858330000","longitude":"22.623961110000"},{"id":"2861","name":"Dworzec Towarowy PKP II 01","street":"RATAJA","latitude":"51.235390000000","longitude":"22.630740000000"},{"id":"7161","name":"Dys - Samsonówka NŻ 01","street":"DYS","latitude":"51.304828794730","longitude":"22.588228583336"},{"id":"7171","name":"Dys - Słoneczna NŻ 01","street":"DYS","latitude":"51.305244710733","longitude":"22.582676410675"},{"id":"7182","name":"Dys - Wąwozowa 02","street":"DYS","latitude":"51.305001478054","longitude":"22.577258348465"},{"id":"6771","name":"Dzbenin 01","street":"SŁAWINKOWSKA","latitude":"51.279291670000","longitude":"22.504488890000"},{"id":"6772","name":"Dzbenin 02","street":"SŁAWINKOWSKA","latitude":"51.278450000000","longitude":"22.505330560000"},{"id":"5521","name":"Dziewanny 01","street":"ARMII KRAJOWEJ","latitude":"51.235016670000","longitude":"22.510941670000"},{"id":"5522","name":"Dziewanny 02","street":"ARMII KRAJOWEJ","latitude":"51.234455560000","longitude":"22.511783330000"},{"id":"4241","name":"Elektrociepłownia 01","street":"INŻYNIERSKA","latitude":"51.217227780000","longitude":"22.555891670000"},{"id":"4242","name":"Elektrociepłownia 02","street":"INŻYNIERSKA","latitude":"51.217508330000","longitude":"22.556733330000"},{"id":"4131","name":"Elektromontaż 01","street":"ZEMBORZYCKA","latitude":"51.202525000000","longitude":"22.559258330000"},{"id":"4132","name":"Elektromontaż 02","street":"ZEMBORZYCKA","latitude":"51.203086110000","longitude":"22.560941670000"},{"id":"4133","name":"Elektromontaż 03","street":"DIAMENTOWA","latitude":"51.203366670000","longitude":"22.559538890000"},{"id":"1891","name":"Elizówka - giełda 01","street":"AL. SPÓŁDZIELCZOŚCI PRACY","latitude":"51.287822220000","longitude":"22.579572220000"},{"id":"1892","name":"Elizówka - giełda 02","street":"AL. SPÓŁDZIELCZOŚCI PRACY","latitude":"51.287822220000","longitude":"22.579572220000"},{"id":"7151","name":"Elizówka - obwodnica NŻ 01","street":"ELIZÓWKA","latitude":"51.302141563563","longitude":"22.576882839203"},{"id":"7152","name":"Elizówka - obwodnica NŻ 02","street":"ELIZÓWKA","latitude":"51.302225452044","longitude":"22.576743364334"},{"id":"7111","name":"Elizówka 01","street":"ELIZÓWKA","latitude":"51.298276723203","longitude":"22.576185464859"},{"id":"7112","name":"Elizówka 02","street":"ELIZÓWKA","latitude":"51.297361110000","longitude":"22.580694440000"},{"id":"7121","name":"Elizówka bloki 01","street":"ELIZÓWKA","latitude":"51.288097497637","longitude":"22.577161788941"},{"id":"7122","name":"Elizówka bloki 02","street":"ELIZÓWKA","latitude":"51.287708323805","longitude":"22.576968669892"},{"id":"7124","name":"Elizówka bloki 04","street":"ELIZÓWKA","latitude":"51.288063948299","longitude":"22.577086687088"},{"id":"7131","name":"Elizówka hotel 01 NŻ","street":"ELIZÓWKA","latitude":"51.297792229357","longitude":"22.580122947693"},{"id":"7142","name":"Elizówka II 02 NŻ","street":"ELIZÓWKA","latitude":"51.293760274703","longitude":"22.575246691704"},{"id":"7101","name":"Elizówka PKS 01","street":"ELIZÓWKA","latitude":"51.291750000000","longitude":"22.579011110000"},{"id":"7102","name":"Elizówka PKS 02","street":"ELIZÓWKA","latitude":"51.290908330000","longitude":"22.578450000000"},{"id":"1611","name":"Elsnera 01","street":"CHOINY","latitude":"51.270033330000","longitude":"22.558416670000"},{"id":"1612","name":"Elsnera 02","street":"ZWIĄZKOWA","latitude":"51.269191670000","longitude":"22.559538890000"},{"id":"4422","name":"Energetyków 02","street":"DIAMENTOWA","latitude":"51.205050000000","longitude":"22.555611110000"},{"id":"4711","name":"Fabryka Cukierków \"Pszczółka\" 01","street":"KROCHMALNA","latitude":"51.227327780000","longitude":"22.555050000000"},{"id":"4712","name":"Fabryka Cukierków \"Pszczółka\" 02","street":"KROCHMALNA","latitude":"51.226766670000","longitude":"22.554488890000"},{"id":"2601","name":"Fabryka Wag 01","street":"ŁĘCZYŃSKA","latitude":"51.240347220000","longitude":"22.585577780000"},{"id":"2602","name":"Fabryka Wag 02","street":"ŁĘCZYŃSKA","latitude":"51.240347220000","longitude":"22.584736110000"},{"id":"5341","name":"Fantastyczna 01","street":"FILARETÓW","latitude":"51.228169440000","longitude":"22.524802780000"},{"id":"5342","name":"Fantastyczna 02","street":"FILARETÓW","latitude":"51.227888890000","longitude":"22.525363890000"},{"id":"3181","name":"Felin 01","street":"DOŚWIADCZALNA","latitude":"51.221996000000","longitude":"22.630499000000"},{"id":"3182","name":"Felin 02","street":"DOŚWIADCZALNA","latitude":"51.221155560000","longitude":"22.629572220000"},{"id":"3183","name":"Felin 03","street":"DOŚWIADCZALNA","latitude":"51.220566793721","longitude":"22.628113031388"},{"id":"3011","name":"Felin Europark 01","street":"KRĘPIECKA","latitude":"51.219550000000","longitude":"22.641050000000"},{"id":"3012","name":"Felin Europark 02","street":"KRĘPIECKA","latitude":"51.219655000000","longitude":"22.641769000000"},{"id":"2851","name":"Felin Spiessa 01","street":"SPIESSA","latitude":"51.226163986612","longitude":"22.653819322586"},{"id":"2852","name":"Felin Spiessa 02","street":"SPIESSA","latitude":"51.226116954213","longitude":"22.653175592423"},{"id":"2853","name":"Felin Spiessa 03","street":"FELIN","latitude":"51.225660000000","longitude":"22.654160000000"},{"id":"2961","name":"Felin Uniwersytet 01","street":"VETTERÓW","latitude":"51.224780000000","longitude":"22.634740000000"},{"id":"2962","name":"Felin Uniwersytet 02","street":"DOŚWIADCZALNA","latitude":"51.225644440000","longitude":"22.633613890000"},{"id":"7941","name":"Franciszków - skrzyżowanie NŻ 01","street":"FRANCISZKÓW","latitude":"51.232969739843","longitude":"22.729468345642"},{"id":"7942","name":"Franciszków - skrzyżowanie NŻ 02","street":"FRANCISZKÓW","latitude":"51.232754765995","longitude":"22.729146480561"},{"id":"7931","name":"Franciszków - Szkolna NŻ 01","street":"FRANCISZKÓW","latitude":"51.226963530035","longitude":"22.720574140549"},{"id":"7932","name":"Franciszków - Szkolna NŻ 02","street":"FRANCISZKÓW","latitude":"51.225633189609","longitude":"22.718718051911"},{"id":"6401","name":"Gajowa 01","street":"ZBOŻOWA","latitude":"51.267227780000","longitude":"22.505330560000"},{"id":"6402","name":"Gajowa 02","street":"ZBOŻOWA","latitude":"51.266552780000","longitude":"22.504769440000"},{"id":"1221","name":"Galeria Labirynt 01","street":"AL. SMORAWIŃSKIEGO","latitude":"51.251963890000","longitude":"22.541188890000"},{"id":"1222","name":"Galeria Labirynt 02","street":"POPIEŁUSZKI","latitude":"51.251122220000","longitude":"22.541188890000"},{"id":"8361","name":"Gen. Okulickiego I 01","street":"ŚWIDNIK","latitude":"51.220600000000","longitude":"22.708310000000"},{"id":"8371","name":"Gen. Okulickiego II 02","street":"ŚWIDNIK","latitude":"51.221640000000","longitude":"22.701860000000"},{"id":"6501","name":"Gen. Zajączka 01","street":"AL. WARSZAWSKA","latitude":"51.255050000000","longitude":"22.518911110000"},{"id":"6502","name":"Gen. Zajączka 02","street":"AL. WARSZAWSKA","latitude":"51.255330560000","longitude":"22.518069440000"},{"id":"5581","name":"Gęsia 01","street":"JANA PAWŁA II","latitude":"51.226952000000","longitude":"22.481834000000"},{"id":"5582","name":"Gęsia 02","street":"JANA PAWŁA II","latitude":"51.226791000000","longitude":"22.481877000000"},{"id":"5583","name":"Gęsia 03","street":"GĘSIA","latitude":"51.226050000000","longitude":"22.480220000000"},{"id":"1211","name":"Głowackiego 01","street":"POPIEŁUSZKI","latitude":"51.253086110000","longitude":"22.536700000000"},{"id":"1212","name":"Głowackiego 02","street":"POPIEŁUSZKI","latitude":"51.253086110000","longitude":"22.536419440000"},{"id":"6551","name":"Główna 01","street":"AL. WARSZAWSKA","latitude":"51.271155560000","longitude":"22.491469440000"},{"id":"6552","name":"Główna 02","street":"AL. WARSZAWSKA","latitude":"51.270594440000","longitude":"22.492030560000"},{"id":"3561","name":"Głusk - cmentarz 01","street":"GŁUSKA","latitude":"51.194819000000","longitude":"22.596200000000"},{"id":"3562","name":"Głusk - cmentarz 02","street":"GŁUSKA","latitude":"51.196058000000","longitude":"22.595328000000"},{"id":"3541","name":"Głusk 01","street":"GŁUSKA","latitude":"51.181536110000","longitude":"22.598202780000"},{"id":"3542","name":"Głusk 02","street":"GŁUSKA","latitude":"51.181536110000","longitude":"22.598763890000"},{"id":"6331","name":"Gnieźnieńska 01","street":"NAŁĘCZOWSKA","latitude":"51.255611110000","longitude":"22.490908330000"},{"id":"6332","name":"Gnieźnieńska 02","street":"NAŁĘCZOWSKA","latitude":"51.255050000000","longitude":"22.493152780000"},{"id":"1581","name":"Goździkowa 01","street":"DOŻYNKOWA","latitude":"51.277745000000","longitude":"22.581815000000"},{"id":"1681","name":"Goździkowa 01","street":"DOŻYNKOWA","latitude":"51.277662471859","longitude":"22.581903934479"},{"id":"1682","name":"Goździkowa 02","street":"CYNAMONOWA","latitude":"51.277045019847","longitude":"22.580895423889"},{"id":"6931","name":"Górki Czechowskie 01","street":"POLIGONOWA","latitude":"51.280694440000","longitude":"22.529852780000"},{"id":"6932","name":"Górki Czechowskie 02","street":"POLIGONOWA","latitude":"51.280694440000","longitude":"22.529852780000"},{"id":"2711","name":"Grabskiego 01","street":"CHEMICZNA","latitude":"51.237261110000","longitude":"22.604208330000"},{"id":"2712","name":"Grabskiego 02","street":"CHEMICZNA","latitude":"51.237541670000","longitude":"22.603086110000"},{"id":"5851","name":"Granitowa 01","street":"GRANITOWA","latitude":"51.224224000000","longitude":"22.501983000000"},{"id":"2731","name":"Grenadierów 01","street":"RATAJA","latitude":"51.235858330000","longitude":"22.620313890000"},{"id":"2732","name":"Grenadierów 02","street":"RATAJA","latitude":"51.236138890000","longitude":"22.618630560000"},{"id":"3341","name":"Grunwaldzka 01","street":"WYZWOLENIA","latitude":"51.210941670000","longitude":"22.594836110000"},{"id":"3342","name":"Grunwaldzka 02","street":"WYZWOLENIA","latitude":"51.211783330000","longitude":"22.594275000000"},{"id":"2801","name":"Grygowej - osiedle 01","street":"GRYGOWEJ","latitude":"51.240908330000","longitude":"22.634175000000"},{"id":"2802","name":"Grygowej - osiedle 02","street":"GRYGOWEJ","latitude":"51.240627780000","longitude":"22.634175000000"},{"id":"2941","name":"Grygowej 01","street":"AL. WITOSA","latitude":"51.227327780000","longitude":"22.619472220000"},{"id":"2942","name":"Grygowej 02","street":"AL. WITOSA","latitude":"51.228730560000","longitude":"22.618911110000"},{"id":"2943","name":"Grygowej 03","street":"GRYGOWEJ","latitude":"51.228772000000","longitude":"22.620328000000"},{"id":"2944","name":"Grygowej 04","street":"DEKUTOWSKIEGO","latitude":"51.227519000000","longitude":"22.618278000000"},{"id":"2761","name":"Grygowej MPK 01","street":"GRYGOWEJ","latitude":"51.230413890000","longitude":"22.624802780000"},{"id":"2762","name":"Grygowej MPK 02","street":"GRYGOWEJ","latitude":"51.230413890000","longitude":"22.624802780000"},{"id":"2321","name":"Hajdowska 01","street":"TURYSTYCZNA","latitude":"51.259538890000","longitude":"22.616552780000"},{"id":"2322","name":"Hajdowska 02","street":"TURYSTYCZNA","latitude":"51.258697220000","longitude":"22.613466670000"},{"id":"3091","name":"Hala MOSiR 01","street":"AL. ZYGMUNTOWSKIE","latitude":"51.237822220000","longitude":"22.569191670000"},{"id":"1131","name":"Harnasie 01","street":"KONCERTOWA","latitude":"51.272277780000","longitude":"22.542872220000"},{"id":"1132","name":"Harnasie 02","street":"KONCERTOWA","latitude":"51.271716670000","longitude":"22.543152780000"},{"id":"1133","name":"Harnasie 03","street":"KONCERTOWA","latitude":"51.272839000000","longitude":"22.544234000000"},{"id":"9541","name":"Helenów I 01","street":"HELENÓW","latitude":"51.328359000000","longitude":"22.497319000000"},{"id":"9542","name":"Helenów I 02","street":"HELENÓW","latitude":"51.328603000000","longitude":"22.497169000000"},{"id":"5831","name":"Heloizy 01","street":"PARYSA","latitude":"51.240066670000","longitude":"22.493433330000"},{"id":"5832","name":"Heloizy 02","street":"PARYSA","latitude":"51.238663890000","longitude":"22.494275000000"},{"id":"1092","name":"Hempla 02","street":"HEMPLA","latitude":"51.245397220000","longitude":"22.558136110000"},{"id":"6281","name":"Hospicjum Małego Księcia NŻ 01","street":"LĘDZIAN","latitude":"51.257107599559","longitude":"22.490655183792"},{"id":"6282","name":"Hospicjum Małego Księcia NŻ 02","street":"LĘDZIAN","latitude":"51.256718163156","longitude":"22.489582300186"},{"id":"1691","name":"Hotel Locomotiva 01 NŻ","street":"PÓŁNOCNA","latitude":"51.254315000000","longitude":"22.556626000000"},{"id":"4831","name":"Hotel pod Kasztanami 01 NŻ","street":"KRĘŻNICKA","latitude":"51.177608330000","longitude":"22.516272220000"},{"id":"4832","name":"Hotel pod Kasztanami 02 NŻ","street":"KRĘŻNICKA","latitude":"51.179572220000","longitude":"22.518350000000"},{"id":"3321","name":"Hubalczyków 01","street":"WYZWOLENIA","latitude":"51.219191670000","longitude":"22.588663890000"},{"id":"3322","name":"Hubalczyków 02","street":"WYZWOLENIA","latitude":"51.220875000000","longitude":"22.588663890000"},{"id":"3323","name":"Hubalczyków 03","street":"MICKIEWICZA","latitude":"51.220033330000","longitude":"22.586700000000"},{"id":"2621","name":"Hutnicza 01","street":"HUTNICZA","latitude":"51.242591670000","longitude":"22.593713890000"},{"id":"1881","name":"IKEA 01","street":"AL. SPÓŁDZIELCZOŚCI PRACY","latitude":"51.283219440000","longitude":"22.575925000000"},{"id":"1882","name":"IKEA 02","street":"AL. SPÓŁDZIELCZOŚCI PRACY","latitude":"51.282377780000","longitude":"22.575083330000"},{"id":"1883","name":"IKEA 03","street":"NASUTOWSKA","latitude":"51.280620000000","longitude":"22.574070000000"},{"id":"1982","name":"IKEA wiadukt 02","street":"AL. SPÓŁDZIELCZOŚCI PRACY","latitude":"51.282290000000","longitude":"22.575140000000"},{"id":"3281","name":"Instytut Agrofizyki 01","street":"DOŚWIADCZALNA","latitude":"51.218927000000","longitude":"22.626019000000"},{"id":"3282","name":"Instytut Agrofizyki 02","street":"DROGA MĘCZENNIKÓW MAJDANKA","latitude":"51.219021000000","longitude":"22.625504000000"},{"id":"4252","name":"Inżynierska 02","street":"INŻYNIERSKA","latitude":"51.218630560000","longitude":"22.551963890000"},{"id":"5461","name":"Irydiona 01","street":"BOHATERÓW M. CASSINO","latitude":"51.241188890000","longitude":"22.508977780000"},{"id":"7971","name":"Jacków - Deutz Fahr NŻ 01","street":"JACKÓW","latitude":"51.221809926567","longitude":"22.762255668640"},{"id":"7972","name":"Jacków - Deutz Fahr NŻ 02","street":"JACKÓW","latitude":"51.221749450611","longitude":"22.763103246689"},{"id":"7961","name":"Jacków - sklep NŻ 01","street":"JACKÓW","latitude":"51.224833623075","longitude":"22.751923799515"},{"id":"7962","name":"Jacków - sklep NŻ 02","street":"JACKÓW","latitude":"51.226688058659","longitude":"22.747246026993"},{"id":"7951","name":"Jacków NŻ 01","street":"JACKÓW","latitude":"51.229476290366","longitude":"22.738888263703"},{"id":"7952","name":"Jacków NŻ 02","street":"JACKÓW","latitude":"51.230228748048","longitude":"22.736356258393"},{"id":"1711","name":"Jaczewskiego 01","street":"CHODŹKI","latitude":"51.259258330000","longitude":"22.567508330000"},{"id":"1712","name":"Jaczewskiego 02","street":"OBYWATELSKA","latitude":"51.258697220000","longitude":"22.568630560000"},{"id":"6801","name":"Jagiellońska 01","street":"AL. SOLIDARNOŚCI","latitude":"51.259819440000","longitude":"22.521997220000"},{"id":"6802","name":"Jagiellońska 02","street":"AL. SOLIDARNOŚCI","latitude":"51.259538890000","longitude":"22.522277780000"},{"id":"7012","name":"Jakubowice Konińskie 02","street":"JAKUBOWICE KONIŃSKIE","latitude":"51.289164353815","longitude":"22.545490264893"},{"id":"8301","name":"Jana Pawła II 01","street":"ŚWIDNIK","latitude":"51.210110000000","longitude":"22.672150000000"},{"id":"8302","name":"Jana Pawła II 02","street":"ŚWIDNIK","latitude":"51.210440000000","longitude":"22.671310000000"},{"id":"5431","name":"Jana Sawy 01","street":"ZANA","latitude":"51.238663890000","longitude":"22.525644440000"},{"id":"5432","name":"Jana Sawy 02","street":"ZANA","latitude":"51.239505560000","longitude":"22.524522220000"},{"id":"4761","name":"Janowska - stacja pomp 01","street":"JANOWSKA","latitude":"51.216272220000","longitude":"22.535016670000"},{"id":"4762","name":"Janowska - stacja pomp 02","street":"JANOWSKA","latitude":"51.216272220000","longitude":"22.535297220000"},{"id":"9452","name":"Jastków - biblioteka 02","street":"JASTKÓW","latitude":"51.311911341787","longitude":"22.433449029923"},{"id":"9441","name":"Jastków 01","street":"JASTKÓW","latitude":"51.304714826276","longitude":"22.433255910874"},{"id":"9442","name":"Jastków 02","street":"JASTKÓW","latitude":"51.303574547835","longitude":"22.434843778610"},{"id":"9461","name":"Jastków Podleśny NŻ 01","street":"JASTKÓW","latitude":"51.324484090874","longitude":"22.434682846070"},{"id":"9462","name":"Jastków Podleśny NŻ 02","street":"JASTKÓW","latitude":"51.323880677649","longitude":"22.434382438660"},{"id":"9451","name":"Jastków-biblioteka 01","street":"JASTKÓW","latitude":"51.312253366153","longitude":"22.433738708496"},{"id":"6411","name":"Jemiołowa 01","street":"ZBOŻOWA","latitude":"51.271436110000","longitude":"22.505330560000"},{"id":"6412","name":"Jemiołowa 02","street":"ZBOŻOWA","latitude":"51.272277780000","longitude":"22.505050000000"},{"id":"3381","name":"Jesienna 01","street":"GRABSKIEGO","latitude":"51.232658330000","longitude":"22.599325000000"},{"id":"1551","name":"Jurajska 01 NŻ","street":"CHOINY","latitude":"51.282091775591","longitude":"22.552464008332"},{"id":"1552","name":"Jurajska 02 NŻ","street":"CHOINY","latitude":"51.281548202215","longitude":"22.552464008332"},{"id":"5531","name":"Jutrzenki 01","street":"ARMII KRAJOWEJ","latitude":"51.230133330000","longitude":"22.512905560000"},{"id":"5532","name":"Jutrzenki 02","street":"ARMII KRAJOWEJ","latitude":"51.230133330000","longitude":"22.513466670000"},{"id":"2511","name":"Kalinowszczyzna 01","street":"KALINOWSZCZYZNA","latitude":"51.251963890000","longitude":"22.591469440000"},{"id":"2512","name":"Kalinowszczyzna 02","street":"AL. ANDERSA","latitude":"51.253366670000","longitude":"22.594275000000"},{"id":"2513","name":"Kalinowszczyzna 03","street":"AL. ANDERSA","latitude":"51.253366670000","longitude":"22.593713890000"},{"id":"2514","name":"Kalinowszczyzna 04","street":"KALINOWSZCZYZNA","latitude":"51.252244440000","longitude":"22.592311110000"},{"id":"7811","name":"Kalinówka - Dwie Topole NŻ 01","street":"KALINÓWKA","latitude":"51.208967082477","longitude":"22.640182971955"},{"id":"7812","name":"Kalinówka - Dwie Topole NŻ 02","street":"KALINÓWKA","latitude":"51.207824426751","longitude":"22.639410495758"},{"id":"7821","name":"Kalinówka - skrzyżowanie NŻ 01","street":"KALINÓWKA","latitude":"51.211494267384","longitude":"22.642650604248"},{"id":"7831","name":"Kalinówka - stacja paliw 01","street":"ŚWIDNIK","latitude":"51.210740000000","longitude":"22.647760000000"},{"id":"7832","name":"Kalinówka - stacja paliw 02","street":"ŚWIDNIK","latitude":"51.211480000000","longitude":"22.646220000000"},{"id":"7721","name":"Kalinówka - wiadukt 01","street":"KALINÓWKA","latitude":"51.201270000000","longitude":"22.673070000000"},{"id":"7722","name":"Kalinówka - wiadukt 02","street":"KALINÓWKA","latitude":"51.201820000000","longitude":"22.671950000000"},{"id":"7711","name":"Kalinówka 01","street":"KALINÓWKA","latitude":"51.205540000000","longitude":"22.661490000000"},{"id":"7712","name":"Kalinówka 02","street":"KALINÓWKA","latitude":"51.205300000000","longitude":"22.662440000000"},{"id":"1121","name":"Kaprysowa 01","street":"KONCERTOWA","latitude":"51.265430560000","longitude":"22.542030560000"},{"id":"1122","name":"Kaprysowa 02","street":"KONCERTOWA","latitude":"51.264027780000","longitude":"22.541469440000"},{"id":"1151","name":"Karkonoska 01","street":"KONCERTOWA","latitude":"51.280975000000","longitude":"22.544836110000"},{"id":"1152","name":"Karkonoska 02","street":"KONCERTOWA","latitude":"51.280133330000","longitude":"22.544555560000"},{"id":"2351","name":"Kasprowicza - Wólka 01","street":"TURYSTYCZNA","latitude":"51.262905560000","longitude":"22.629291670000"},{"id":"2352","name":"Kasprowicza - Wólka 02","street":"TURYSTYCZNA","latitude":"51.263747220000","longitude":"22.630694440000"},{"id":"2561","name":"Kasprowicza 01","street":"MEŁGIEWSKA","latitude":"51.245839000000","longitude":"22.637119000000"},{"id":"2562","name":"Kasprowicza 02","street":"MEŁGIEWSKA","latitude":"51.245539000000","longitude":"22.636097000000"},{"id":"2261","name":"Kasztanowa 01","street":"DASZYŃSKIEGO","latitude":"51.261196482622","longitude":"22.593630552292"},{"id":"2262","name":"Kasztanowa 02","street":"DASZYŃSKIEGO","latitude":"51.261317330775","longitude":"22.593684196472"},{"id":"4701","name":"Kawia 01","street":"KROCHMALNA","latitude":"51.229852780000","longitude":"22.561502780000"},{"id":"4702","name":"Kawia 02","street":"KROCHMALNA","latitude":"51.229852780000","longitude":"22.562063890000"},{"id":"1411","name":"Kiepury 01","street":"AL. SMORAWIŃSKIEGO","latitude":"51.258416670000","longitude":"22.545958330000"},{"id":"1412","name":"Kiepury 02","street":"AL. SMORAWIŃSKIEGO","latitude":"51.258697220000","longitude":"22.545677780000"},{"id":"2331","name":"Kijańska 01","street":"TURYSTYCZNA","latitude":"51.260380560000","longitude":"22.621436110000"},{"id":"2332","name":"Kijańska 02","street":"TURYSTYCZNA","latitude":"51.260941670000","longitude":"22.622277780000"},{"id":"8391","name":"Kino LOT 01","street":"ŚWIDNIK","latitude":"51.220177047862","longitude":"22.693065404892"},{"id":"2121","name":"Kleeberga 01","street":"AL. ANDERSA","latitude":"51.257575000000","longitude":"22.588944440000"},{"id":"2122","name":"Kleeberga 02","street":"AL. ANDERSA","latitude":"51.257013890000","longitude":"22.590627780000"},{"id":"9091","name":"Kleopatry 01","street":"WOJCIECHOWSKA","latitude":"51.246800000000","longitude":"22.483894440000"},{"id":"7791","name":"Klonowa - kościół 01","street":"ŚWIDNIK","latitude":"51.210060000000","longitude":"22.702970000000"},{"id":"7792","name":"Klonowa - kościół 02","street":"ŚWIDNIK","latitude":"51.210170000000","longitude":"22.703720000000"},{"id":"6321","name":"Klonowa 01","street":"NAŁĘCZOWSKA","latitude":"51.252805560000","longitude":"22.500561110000"},{"id":"6322","name":"Klonowa 02","street":"NAŁĘCZOWSKA","latitude":"51.252525000000","longitude":"22.501683330000"},{"id":"7781","name":"Klonowa II 01","street":"ŚWIDNIK","latitude":"51.209940000000","longitude":"22.699450000000"},{"id":"7782","name":"Klonowa II 02","street":"ŚWIDNIK","latitude":"51.209990000000","longitude":"22.699260000000"},{"id":"4731","name":"Klub Jeździecki 01","street":"KROCHMALNA","latitude":"51.222838890000","longitude":"22.541469440000"},{"id":"4732","name":"Klub Jeździecki 02","street":"KROCHMALNA","latitude":"51.222558330000","longitude":"22.541188890000"},{"id":"6571","name":"Kmieca 01","street":"AL. WARSZAWSKA","latitude":"51.275363890000","longitude":"22.484455560000"},{"id":"6572","name":"Kmieca 02","street":"AL. WARSZAWSKA","latitude":"51.274802780000","longitude":"22.484736110000"},{"id":"9701","name":"Kolonia Dąbrowica - ośr. zdrowia NŻ 01","street":"DĄBROWICA","latitude":"51.256906167349","longitude":"22.450025081635"},{"id":"9702","name":"Kolonia Dąbrowica - ośr. zdrowia NŻ 02","street":"DĄBROWICA","latitude":"51.257154600281","longitude":"22.448705434799"},{"id":"6361","name":"Kolonia Dąbrowica 01","street":"DĄBROWICA","latitude":"51.256172220000","longitude":"22.466272220000"},{"id":"6362","name":"Kolonia Dąbrowica 02","street":"NAŁĘCZOWSKA","latitude":"51.255330560000","longitude":"22.466666670000"},{"id":"6363","name":"Kolonia Dąbrowica 03","street":"DĄBROWICA","latitude":"51.255522975667","longitude":"22.464959621430"},{"id":"8031","name":"Kolonia Dominów 01","street":"DOMINÓW","latitude":"51.168350000000","longitude":"22.600841670000"},{"id":"8032","name":"Kolonia Dominów 02","street":"DOMINÓW","latitude":"51.168630560000","longitude":"22.600841670000"},{"id":"7331","name":"Kolonia Pliszczyn II NŻ 01","street":"KOLONIA PLISZCZYN","latitude":"51.292543187569","longitude":"22.616445422173"},{"id":"7332","name":"Kolonia Pliszczyn II NŻ 02","street":"KOLONIA PLISZCZYN","latitude":"51.292371482879","longitude":"22.616322040558"},{"id":"7321","name":"Kolonia Pliszczyn NŻ 01","street":"KOLONIA PLISZCZYN","latitude":"51.289627321426","longitude":"22.619293928147"},{"id":"7322","name":"Kolonia Pliszczyn NŻ 02","street":"KOLONIA PLISZCZYN","latitude":"51.289768223685","longitude":"22.618746757508"},{"id":"9561","name":"Kolonia Snopków 01","street":"KOLONIA SNOPKÓW","latitude":"51.321735144109","longitude":"22.496845722199"},{"id":"9562","name":"Kolonia Snopków 02","street":"KOLONIA SNOPKÓW","latitude":"51.321694914396","longitude":"22.496598958969"},{"id":"8261","name":"Kolonia Świdnik Mały - rondo NŻ 01","street":"ŚWIDNIK","latitude":"51.238659463768","longitude":"22.680083513260"},{"id":"8262","name":"Kolonia Świdnik Mały - rondo NŻ 02","street":"ŚWIDNIK","latitude":"51.241003667162","longitude":"22.678012847901"},{"id":"8251","name":"Kolonia Świdnik Mały NŻ 01","street":"ŚWIDNIK","latitude":"51.241312636350","longitude":"22.674171924591"},{"id":"8252","name":"Kolonia Świdnik Mały NŻ 02","street":"ŚWIDNIK","latitude":"51.241708919878","longitude":"22.672026157379"},{"id":"4751","name":"Koło 01","street":"JANOWSKA","latitude":"51.218350000000","longitude":"22.536700000000"},{"id":"4752","name":"Koło 02","street":"JANOWSKA","latitude":"51.218630560000","longitude":"22.536980560000"},{"id":"8701","name":"Konopnica - kościół 01","street":"KONOPNICA","latitude":"51.218350000000","longitude":"22.457855560000"},{"id":"8702","name":"Konopnica - kościół 02","street":"AL. KRAŚNICKA","latitude":"51.219752780000","longitude":"22.460380560000"},{"id":"8703","name":"Konopnica - kościół 03","street":"KONOPNICA","latitude":"51.219472220000","longitude":"22.457013890000"},{"id":"8711","name":"Konopnica - las 01","street":"KONOPNICA","latitude":"51.207013890000","longitude":"22.447641670000"},{"id":"8712","name":"Konopnica - las 02","street":"KONOPNICA","latitude":"51.209538890000","longitude":"22.450000000000"},{"id":"8713","name":"Konopnica - las 03","street":"KONOPNICA","latitude":"51.209511514350","longitude":"22.449885606766"},{"id":"9161","name":"Konopnica - skrzyżowanie 01","street":"KONOPNICA","latitude":"51.238663890000","longitude":"22.429011110000"},{"id":"9162","name":"Konopnica - skrzyżowanie 02","street":"KONOPNICA","latitude":"51.237551000000","longitude":"22.425882000000"},{"id":"9163","name":"Konopnica - skrzyżowanie 03","street":"KONOPNICA","latitude":"51.237323000000","longitude":"22.426182000000"},{"id":"8901","name":"Konopnica - szkoła 01","street":"KONOPNICA","latitude":"51.221155560000","longitude":"22.445116670000"},{"id":"8902","name":"Konopnica - szkoła 02","street":"KONOPNICA","latitude":"51.221155560000","longitude":"22.443713890000"},{"id":"1061","name":"Konopnicka 01","street":"NARUTOWICZA","latitude":"51.243433330000","longitude":"22.556733330000"},{"id":"2131","name":"Koryznowej 01","street":"KORYZNOWEJ","latitude":"51.260100000000","longitude":"22.586138890000"},{"id":"2132","name":"Koryznowej 02","street":"KORYZNOWEJ","latitude":"51.260380560000","longitude":"22.585577780000"},{"id":"3221","name":"Kosmonautów 01","street":"KRAŃCOWA","latitude":"51.230694440000","longitude":"22.590066670000"},{"id":"3222","name":"Kosmonautów 02","street":"KRAŃCOWA","latitude":"51.230413890000","longitude":"22.590066670000"},{"id":"1101","name":"Kosmowskiej 01","street":"KOSMOWSKIEJ","latitude":"51.259258330000","longitude":"22.538383330000"},{"id":"1102","name":"Kosmowskiej 02","street":"KOSMOWSKIEJ","latitude":"51.258136110000","longitude":"22.537822220000"},{"id":"1572","name":"Kosynierów 02","street":"DOŻYNKOWA","latitude":"51.276353000000","longitude":"22.577076000000"},{"id":"8351","name":"Kosynierów I 01","street":"ŚWIDNIK","latitude":"51.217240000000","longitude":"22.709210000000"},{"id":"8352","name":"Kosynierów I 02","street":"ŚWIDNIK","latitude":"51.216970000000","longitude":"22.709010000000"},{"id":"8422","name":"Kosynierów II 02","street":"ŚWIDNIK","latitude":"51.219599142755","longitude":"22.710671424866"},{"id":"8951","name":"Kozubszczyzna - Urząd Gminy 01","street":"KOZUBSZCZYZNA","latitude":"51.223119440000","longitude":"22.428169440000"},{"id":"8952","name":"Kozubszczyzna - Urząd Gminy 02","street":"KOZUBSZCZYZNA","latitude":"51.223119440000","longitude":"22.428169440000"},{"id":"8953","name":"Kozubszczyzna - Urząd Gminy 03","street":"KOZUBSZCZYZNA","latitude":"51.223281000000","longitude":"22.427341000000"},{"id":"8954","name":"Kozubszczyzna - Urząd Gminy 04","street":"KOZUBSZCZYZNA","latitude":"51.223040000000","longitude":"22.427083000000"},{"id":"9061","name":"Kozubszczyzna 01","street":"KOZUBSZCZYZNA","latitude":"51.230148000000","longitude":"22.403308000000"},{"id":"9062","name":"Kozubszczyzna 02","street":"KOZUBSZCZYZNA","latitude":"51.229812000000","longitude":"22.403136000000"},{"id":"9051","name":"Kozubszczyzna II 01","street":"KOZUBSZCZYZNA","latitude":"51.226856000000","longitude":"22.415539000000"},{"id":"9052","name":"Kozubszczyzna II 02","street":"KOZUBSZCZYZNA","latitude":"51.226668000000","longitude":"22.415067000000"},{"id":"2811","name":"KPRD 01","street":"GRYGOWEJ","latitude":"51.232938890000","longitude":"22.624522220000"},{"id":"2812","name":"KPRD 02","street":"GRYGOWEJ","latitude":"51.233333330000","longitude":"22.625925000000"},{"id":"1012","name":"Krakowskie Przedmieście 02","street":"KRAKOWSKIE PRZEDMIEŚCIE","latitude":"51.247641670000","longitude":"22.552805560000"},{"id":"1014","name":"Krakowskie Przedmieście 04","street":"KRAKOWSKIE PRZEDMIEŚCIE","latitude":"51.247641670000","longitude":"22.553647220000"},{"id":"5451","name":"Krasińskiego 01","street":"ZANA","latitude":"51.242311110000","longitude":"22.516552780000"},{"id":"3782","name":"Kraszewskiego 02","street":"KUNICKIEGO","latitude":"51.221643000000","longitude":"22.576834000000"},{"id":"2641","name":"Kresowa 01","street":"GOSPODARCZA","latitude":"51.245397220000","longitude":"22.600561110000"},{"id":"2642","name":"Kresowa 02","street":"GOSPODARCZA","latitude":"51.245958330000","longitude":"22.600841670000"},{"id":"8511","name":"Krężnica Jara - most 01","street":"KRĘŻNICA JARA","latitude":"51.150561110000","longitude":"22.459819440000"},{"id":"8512","name":"Krężnica Jara - most 02","street":"KRĘŻNICA JARA","latitude":"51.151122220000","longitude":"22.460380560000"},{"id":"8522","name":"Krężnica Jara 02","street":"KRĘŻNICA JARA","latitude":"51.144836110000","longitude":"22.462063890000"},{"id":"8501","name":"Krężnica Jara PKP 01","street":"KRĘŻNICA JARA","latitude":"51.151122220000","longitude":"22.464308330000"},{"id":"8502","name":"Krężnica Jara PKP 02","street":"KRĘŻNICA JARA","latitude":"51.151122220000","longitude":"22.466552780000"},{"id":"4801","name":"Krężnicka - kemping 01","street":"KRĘŻNICKA","latitude":"51.194275000000","longitude":"22.527327780000"},{"id":"4802","name":"Krężnicka - kemping 02","street":"KRĘŻNICKA","latitude":"51.192872220000","longitude":"22.527047220000"},{"id":"4901","name":"Krężnicka - przejazd 01","street":"KRĘŻNICKA","latitude":"51.165991670000","longitude":"22.494275000000"},{"id":"4902","name":"Krężnicka - przejazd 02","street":"KRĘŻNICKA","latitude":"51.166272220000","longitude":"22.495116670000"},{"id":"4841","name":"Krężnicka - przychodnia 01","street":"KRĘŻNICKA","latitude":"51.173961110000","longitude":"22.509819440000"},{"id":"4842","name":"Krężnicka - przychodnia 02","street":"KRĘŻNICKA","latitude":"51.174241670000","longitude":"22.510661110000"},{"id":"4972","name":"Krężnicka - stacja PKP","street":"KRĘŻNICKA","latitude":"51.170490000000","longitude":"22.502880000000"},{"id":"4851","name":"Krężnicka - szkoła 01","street":"KRĘŻNICKA","latitude":"51.171436110000","longitude":"22.504488890000"},{"id":"4852","name":"Krężnicka - szkoła 02","street":"KRĘŻNICKA","latitude":"51.171716670000","longitude":"22.505611110000"},{"id":"4221","name":"Kruczkowskiego 01","street":"KRUCZKOWSKIEGO","latitude":"51.215150000000","longitude":"22.566272220000"},{"id":"4222","name":"Kruczkowskiego 02","street":"KRUCZKOWSKIEGO","latitude":"51.215150000000","longitude":"22.565991670000"},{"id":"4224","name":"Kruczkowskiego 04","street":"KRUCZKOWSKIEGO","latitude":"51.214869440000","longitude":"22.564869440000"},{"id":"5561","name":"Kryształowa 01","street":"JANA PAWŁA II","latitude":"51.225083330000","longitude":"22.496800000000"},{"id":"5562","name":"Kryształowa 02","street":"JANA PAWŁA II","latitude":"51.224802780000","longitude":"22.497922220000"},{"id":"2101","name":"Krzemieniecka 01","street":"LWOWSKA","latitude":"51.255611110000","longitude":"22.580975000000"},{"id":"2102","name":"Krzemieniecka 02","street":"LWOWSKA","latitude":"51.255330560000","longitude":"22.579852780000"},{"id":"8771","name":"Ku Słońcu 01","street":"PASIECZNA","latitude":"51.170033330000","longitude":"22.485577780000"},{"id":"8772","name":"Ku Słońcu 02","street":"PASIECZNA","latitude":"51.170033330000","longitude":"22.485577780000"},{"id":"5901","name":"KUL 01","street":"AL. DŁUGOSZA","latitude":"51.249886110000","longitude":"22.542591670000"},{"id":"5902","name":"KUL 02","street":"AL. RACŁAWICKIE","latitude":"51.248763890000","longitude":"22.542591670000"},{"id":"5903","name":"KUL 03","street":"AL. RACŁAWICKIE","latitude":"51.249044440000","longitude":"22.541188890000"},{"id":"3771","name":"Kuncewiczowej 01 NŻ","street":"KUNICKIEGO","latitude":"51.208416670000","longitude":"22.585858330000"},{"id":"3772","name":"Kuncewiczowej 02 NŻ","street":"GŁUSKA","latitude":"51.207353913212","longitude":"22.590959072113"},{"id":"9772","name":"Kuncewiczowej NŻ","street":"GŁUSKA","latitude":"51.207430000000","longitude":"22.590830000000"},{"id":"2001","name":"Kupiecka IKEA 01","street":"KUPIECKA","latitude":"51.285270000000","longitude":"22.568790000000"},{"id":"2002","name":"Kupiecka IKEA 02","street":"KUPIECKA","latitude":"51.285270000000","longitude":"22.568780000000"},{"id":"2003","name":"Kupiecka IKEA 03","street":"KUPIECKA","latitude":"51.285270000000","longitude":"22.568900000000"},{"id":"2004","name":"Kupiecka IKEA 04","street":"KUPIECKA","latitude":"51.285270000000","longitude":"22.568890000000"},{"id":"8451","name":"Kusocińskiego NŻ 01","street":"ŚWIDNIK","latitude":"51.212206693388","longitude":"22.710489034653"},{"id":"8452","name":"Kusocińskiego NŻ 02","street":"ŚWIDNIK","latitude":"51.212744393653","longitude":"22.710489034653"},{"id":"1582","name":"Laurowa 02","street":"DOŻYNKOWA","latitude":"51.278030000000","longitude":"22.583770000000"},{"id":"4502","name":"Leśna 02","street":"NOWY ŚWIAT","latitude":"51.226766670000","longitude":"22.568630560000"},{"id":"4821","name":"Letniskowa 01","street":"KRĘŻNICKA","latitude":"51.182658330000","longitude":"22.520594440000"},{"id":"4822","name":"Letniskowa 02","street":"KRĘŻNICKA","latitude":"51.183613890000","longitude":"22.521436110000"},{"id":"5911","name":"Liceum im. Staszica 01","street":"AL. RACŁAWICKIE","latitude":"51.250000000000","longitude":"22.535297220000"},{"id":"5912","name":"Liceum im. Staszica 02","street":"AL. RACŁAWICKIE","latitude":"51.249605560000","longitude":"22.536980560000"},{"id":"2371","name":"Lipeckiego 01","street":"PLISZCZYŃSKA","latitude":"51.280975000000","longitude":"22.625925000000"},{"id":"2372","name":"Lipeckiego 02","street":"PLISZCZYŃSKA","latitude":"51.280694440000","longitude":"22.626205560000"},{"id":"6132","name":"Lipniak 02","street":"WOJCIECHOWSKA","latitude":"51.247080560000","longitude":"22.490347220000"},{"id":"1071","name":"Lipowa - cmentarz 01","street":"LIPOWA","latitude":"51.243994440000","longitude":"22.552244440000"},{"id":"1072","name":"Lipowa - cmentarz 02","street":"LIPOWA","latitude":"51.243994440000","longitude":"22.552805560000"},{"id":"4791","name":"Lipska 01","street":"JANOWSKA","latitude":"51.200561110000","longitude":"22.527608330000"},{"id":"4792","name":"Lipska 02","street":"JANOWSKA","latitude":"51.199325000000","longitude":"22.527608330000"},{"id":"6761","name":"Lisa 01","street":"SŁAWINKOWSKA","latitude":"51.270875000000","longitude":"22.510941670000"},{"id":"6762","name":"Lisa 02","street":"SŁAWINKOWSKA","latitude":"51.271997220000","longitude":"22.510380560000"},{"id":"3121","name":"Lotnicza 01","street":"DROGA MĘCZENNIKÓW MAJDANKA","latitude":"51.233219440000","longitude":"22.585577780000"},{"id":"3122","name":"Lotnicza 02","street":"DROGA MĘCZENNIKÓW MAJDANKA","latitude":"51.232938890000","longitude":"22.586980560000"},{"id":"8311","name":"Lotników Polskich - działki 01","street":"ŚWIDNIK","latitude":"51.209400000000","longitude":"22.682570000000"},{"id":"8312","name":"Lotników Polskich - działki 02","street":"ŚWIDNIK","latitude":"51.209280000000","longitude":"22.680930000000"},{"id":"7732","name":"Lotników Polskich - Krępiec Kolonia 02","street":"ŚWIDNIK","latitude":"51.201890000000","longitude":"22.674940000000"},{"id":"8321","name":"Lotników Polskich - stacja paliw 01","street":"ŚWIDNIK","latitude":"51.213540000000","longitude":"22.686470000000"},{"id":"8322","name":"Lotników Polskich - stacja paliw 02","street":"ŚWIDNIK","latitude":"51.212960000000","longitude":"22.685690000000"},{"id":"8472","name":"Lotników Polskich - szpital 02 NŻ","street":"ŚWIDNIK","latitude":"51.222139183157","longitude":"22.694106101990"},{"id":"1242","name":"Lubomelska 02","street":"AL. SOLIDARNOŚCI","latitude":"51.252805560000","longitude":"22.554488890000"},{"id":"3211","name":"Łabędzia 01","street":"KRAŃCOWA","latitude":"51.232097220000","longitude":"22.592030560000"},{"id":"3212","name":"Łabędzia 02","street":"KRAŃCOWA","latitude":"51.232658330000","longitude":"22.591750000000"},{"id":"2341","name":"Łagiewnicka 01","street":"TURYSTYCZNA","latitude":"51.261502780000","longitude":"22.625363890000"},{"id":"7341","name":"Łagiewniki PGE 01","street":"ŁAGIEWNIKI","latitude":"51.297295801477","longitude":"22.614219188690"},{"id":"7342","name":"Łagiewniki PGE 02","street":"ŁAGIEWNIKI","latitude":"51.297342761101","longitude":"22.614047527313"},{"id":"2381","name":"Łysakowska 01","street":"PLISZCZYŃSKA","latitude":"51.284175000000","longitude":"22.625083330000"},{"id":"2382","name":"Łysakowska 02","street":"PLISZCZYŃSKA","latitude":"51.283894440000","longitude":"22.624802780000"},{"id":"3172","name":"Majdanek - cmentarz 02","street":"DROGA MĘCZENNIKÓW MAJDANKA","latitude":"51.221997220000","longitude":"22.607013890000"},{"id":"3141","name":"Majdanek - pomnik 01","street":"DROGA MĘCZENNIKÓW MAJDANKA","latitude":"51.227047220000","longitude":"22.602244440000"},{"id":"3142","name":"Majdanek - pomnik 02","street":"DROGA MĘCZENNIKÓW MAJDANKA","latitude":"51.227327780000","longitude":"22.602525000000"},{"id":"3151","name":"Majdanek 01","street":"DROGA MĘCZENNIKÓW MAJDANKA","latitude":"51.224522220000","longitude":"22.609538890000"},{"id":"3152","name":"Majdanek 02","street":"DROGA MĘCZENNIKÓW MAJDANKA","latitude":"51.224802780000","longitude":"22.609819440000"},{"id":"3901","name":"Makowa 01","street":"ABRAMOWICKA","latitude":"51.201402780000","longitude":"22.585858330000"},{"id":"3902","name":"Makowa 02","street":"ABRAMOWICKA","latitude":"51.201122220000","longitude":"22.586138890000"},{"id":"2701","name":"Makro 01","street":"CHEMICZNA","latitude":"51.237822220000","longitude":"22.598763890000"},{"id":"2702","name":"Makro 02","street":"CHEMICZNA","latitude":"51.237822220000","longitude":"22.600000000000"},{"id":"7311","name":"Marianówka NŻ 01","street":"RUDNIK","latitude":"51.286305928676","longitude":"22.613554000855"},{"id":"7312","name":"Marianówka NŻ 02","street":"RUDNIK","latitude":"51.286171725940","longitude":"22.613103389740"},{"id":"4811","name":"Marina 01","street":"KRĘŻNICKA","latitude":"51.190347220000","longitude":"22.525644440000"},{"id":"4812","name":"Marina 02","street":"KRĘŻNICKA","latitude":"51.190347220000","longitude":"22.525925000000"},{"id":"9501","name":"Marysin - Natalin 01","street":"SNOPKÓW","latitude":"51.294280000000","longitude":"22.494520000000"},{"id":"9502","name":"Marysin - Natalin 02","street":"SNOPKÓW","latitude":"51.292360000000","longitude":"22.495130000000"},{"id":"4931","name":"Marzanny 01","street":"KRĘŻNICKA","latitude":"51.152525000000","longitude":"22.476205560000"},{"id":"4932","name":"Marzanny 02","street":"KRĘŻNICKA","latitude":"51.153366670000","longitude":"22.479011110000"},{"id":"5811","name":"Mazowiecka 01","street":"ROZTOCZE","latitude":"51.232938890000","longitude":"22.490908330000"},{"id":"5812","name":"Mazowiecka 02","street":"ROZTOCZE","latitude":"51.232658330000","longitude":"22.491469440000"},{"id":"4541","name":"Medalionów 01","street":"DIAMENTOWA","latitude":"51.218069440000","longitude":"22.545677780000"},{"id":"4542","name":"Medalionów 02","street":"DIAMENTOWA","latitude":"51.217788890000","longitude":"22.546519440000"},{"id":"7981","name":"Mełgiew - Lubelska NŻ 01","street":"MEŁGIEW","latitude":"51.226311802409","longitude":"22.770656347275"},{"id":"7982","name":"Mełgiew - Lubelska NŻ 02","street":"MEŁGIEW","latitude":"51.225431619523","longitude":"22.769529819489"},{"id":"7992","name":"Mełgiew 02","street":"MEŁGIEW","latitude":"51.230416860546","longitude":"22.780247926712"},{"id":"2571","name":"Mełgiewska - chłodnia 01","street":"MEŁGIEWSKA","latitude":"51.245677780000","longitude":"22.642591670000"},{"id":"2572","name":"Mełgiewska - chłodnia 02","street":"MEŁGIEWSKA","latitude":"51.245958330000","longitude":"22.641469440000"},{"id":"2531","name":"Mełgiewska WSEI 01","street":"MEŁGIEWSKA","latitude":"51.246800000000","longitude":"22.611222220000"},{"id":"2532","name":"Mełgiewska WSEI 02","street":"MEŁGIEWSKA","latitude":"51.247641670000","longitude":"22.609819440000"},{"id":"2781","name":"Metalurgiczna - hurtownia 01","street":"METALURGICZNA","latitude":"51.242739000000","longitude":"22.637058000000"},{"id":"2782","name":"Metalurgiczna - hurtownia 02","street":"METALURGICZNA","latitude":"51.243558000000","longitude":"22.635108000000"},{"id":"2792","name":"Metalurgiczna 02","street":"METALURGICZNA","latitude":"51.240041900000","longitude":"22.649208000000"},{"id":"2772","name":"Metalurgiczna II 02","street":"METALURGICZNA","latitude":"51.241858000000","longitude":"22.641650000000"},{"id":"8141","name":"Mętów - skład węgla 01","street":"MĘTÓW","latitude":"51.146800000000","longitude":"22.590347220000"},{"id":"8131","name":"Mętów - szkoła 01","street":"MĘTÓW","latitude":"51.153647220000","longitude":"22.583333330000"},{"id":"8132","name":"Mętów - szkoła 02","street":"MĘTÓW","latitude":"51.154488890000","longitude":"22.583333330000"},{"id":"8151","name":"Mętów 01","street":"MĘTÓW","latitude":"51.147260000000","longitude":"22.590340000000"},{"id":"8152","name":"Mętów 02","street":"MĘTÓW","latitude":"51.138663890000","longitude":"22.599605560000"},{"id":"3741","name":"Mickiewicza 01","street":"KUNICKIEGO","latitude":"51.216947220000","longitude":"22.580133330000"},{"id":"3742","name":"Mickiewicza 02","street":"KUNICKIEGO","latitude":"51.216272220000","longitude":"22.580975000000"},{"id":"3744","name":"Mickiewicza 04","street":"KUNICKIEGO","latitude":"51.217788890000","longitude":"22.579852780000"},{"id":"3521","name":"Miętowa 01","street":"GŁUSKA","latitude":"51.190627780000","longitude":"22.596519440000"},{"id":"3522","name":"Miętowa 02","street":"GŁUSKA","latitude":"51.192030560000","longitude":"22.597080560000"},{"id":"6721","name":"Mineralna 01","street":"POLIGONOWA","latitude":"51.262905560000","longitude":"22.528450000000"},{"id":"6722","name":"Mineralna 02","street":"GEN. DUCHA","latitude":"51.262344440000","longitude":"22.528730560000"},{"id":"6723","name":"Mineralna 03","street":"WILLOWA","latitude":"51.262905560000","longitude":"22.527608330000"},{"id":"1521","name":"Młodej Polski 01","street":"SZELIGOWSKIEGO","latitude":"51.265991670000","longitude":"22.558416670000"},{"id":"1522","name":"Młodej Polski 02","street":"SZELIGOWSKIEGO","latitude":"51.266947220000","longitude":"22.557855560000"},{"id":"4201","name":"Młodzieżowa 01","street":"KRUCZKOWSKIEGO","latitude":"51.212905560000","longitude":"22.574241670000"},{"id":"4202","name":"Młodzieżowa 02","street":"KRUCZKOWSKIEGO","latitude":"51.213747220000","longitude":"22.572558330000"},{"id":"2521","name":"Montażowa 01","street":"MEŁGIEWSKA","latitude":"51.248763890000","longitude":"22.600841670000"},{"id":"2522","name":"Montażowa 02","street":"MEŁGIEWSKA","latitude":"51.248763890000","longitude":"22.601963890000"},{"id":"3021","name":"Moritza 01","street":"MORITZA","latitude":"51.220220726441","longitude":"22.644753456116"},{"id":"6201","name":"Morwowa - Helenów 01","street":"MORWOWA","latitude":"51.248202780000","longitude":"22.514027780000"},{"id":"6202","name":"Morwowa - Helenów 02","street":"MORWOWA","latitude":"51.248763890000","longitude":"22.513747220000"},{"id":"1841","name":"Morzyckiej 01","street":"AL. SPÓŁDZIELCZOŚCI PRACY","latitude":"51.263186110000","longitude":"22.572558330000"},{"id":"1051","name":"Mościckiego 01","street":"MOŚCICKIEGO","latitude":"51.244419004702","longitude":"22.558863759042"},{"id":"1052","name":"Mościckiego 02","street":"NARUTOWICZA","latitude":"51.245116670000","longitude":"22.559538890000"},{"id":"9172","name":"Motycz - chłodnia 02","street":"MOTYCZ","latitude":"51.243433330000","longitude":"22.418069440000"},{"id":"9174","name":"Motycz - chłodnia 04","street":"MOTYCZ","latitude":"51.243433330000","longitude":"22.418069440000"},{"id":"9181","name":"Motycz - hotel 01","street":"MOTYCZ","latitude":"51.248483330000","longitude":"22.416666670000"},{"id":"9182","name":"Motycz - hotel 02","street":"MOTYCZ","latitude":"51.248221000000","longitude":"22.418157000000"},{"id":"9184","name":"Motycz - hotel 04","street":"MOTYCZ","latitude":"51.246822000000","longitude":"22.417182000000"},{"id":"8991","name":"Motycz - szkoła 01","street":"MOTYCZ","latitude":"51.238663890000","longitude":"22.376205560000"},{"id":"8992","name":"Motycz - szkoła 02","street":"MOTYCZ","latitude":"51.239557000000","longitude":"22.379125000000"},{"id":"9071","name":"Motycz Góry 01 NŻ","street":"MOTYCZ","latitude":"51.233400000000","longitude":"22.408700000000"},{"id":"9072","name":"Motycz Góry 02 NŻ","street":"MOTYCZ","latitude":"51.232700000000","longitude":"22.405900000000"},{"id":"9001","name":"Motycz Leśny - przejazd 01","street":"MOTYCZ LEŚNY","latitude":"51.238102780000","longitude":"22.370313890000"},{"id":"9002","name":"Motycz Leśny - przejazd 02","street":"MOTYCZ LEŚNY","latitude":"51.238102780000","longitude":"22.370313890000"},{"id":"9022","name":"Motycz Leśny - remiza 02","street":"MOTYCZ LEŚNY","latitude":"51.242311110000","longitude":"22.351122220000"},{"id":"9011","name":"Motycz Leśny PKP 01","street":"MOTYCZ LEŚNY","latitude":"51.242872220000","longitude":"22.360661110000"},{"id":"9012","name":"Motycz Leśny PKP 02","street":"MOTYCZ LEŚNY","latitude":"51.242872220000","longitude":"22.360661110000"},{"id":"3401","name":"MPWiK 01","street":"AL. PIŁSUDSKIEGO","latitude":"51.239786110000","longitude":"22.558416670000"},{"id":"3402","name":"MPWiK 02","street":"AL. PIŁSUDSKIEGO","latitude":"51.240347220000","longitude":"22.557575000000"},{"id":"5101","name":"Muzyczna 01","street":"NARUTOWICZA","latitude":"51.239786110000","longitude":"22.552805560000"},{"id":"5102","name":"Muzyczna 02","street":"NARUTOWICZA","latitude":"51.240066670000","longitude":"22.553366670000"},{"id":"5103","name":"Muzyczna 03","street":"GŁĘBOKA","latitude":"51.239505560000","longitude":"22.551402780000"},{"id":"8271","name":"Nadleśnictwo Świdnik NŻ 01","street":"ŚWIDNIK","latitude":"51.227857120953","longitude":"22.674971222878"},{"id":"8272","name":"Nadleśnictwo Świdnik NŻ 02","street":"ŚWIDNIK","latitude":"51.228791005700","longitude":"22.675577402115"},{"id":"5701","name":"Nałęczowska 01","street":"AL. KRAŚNICKA","latitude":"51.248202780000","longitude":"22.518911110000"},{"id":"5702","name":"Nałęczowska 02","street":"AL. KRAŚNICKA","latitude":"51.248763890000","longitude":"22.520875000000"},{"id":"1591","name":"Narcyzowa 01","street":"DOŻYNKOWA","latitude":"51.278849000000","longitude":"22.595762000000"},{"id":"1592","name":"Narcyzowa 02","street":"DOŻYNKOWA","latitude":"51.278868000000","longitude":"22.594802000000"},{"id":"1991","name":"Nasutowska IKEA 01","street":"KUPIECKA","latitude":"51.281370000000","longitude":"22.568440000000"},{"id":"1992","name":"Nasutowska IKEA 02","street":"NASUTOWSKA","latitude":"51.280820000000","longitude":"22.570230000000"},{"id":"8381","name":"Niepodległości - szpital 01","street":"ŚWIDNIK","latitude":"51.220860000000","longitude":"22.694390000000"},{"id":"2191","name":"Niepodległości 01","street":"NIEPODLEGŁOŚCI","latitude":"51.257934000000","longitude":"22.593608000000"},{"id":"2192","name":"Niepodległości 02","street":"NIEPODLEGŁOŚCI","latitude":"51.257575000000","longitude":"22.593994440000"},{"id":"8412","name":"Niepodległości I","street":"ŚWIDNIK","latitude":"51.218690000000","longitude":"22.707980000000"},{"id":"8382","name":"Niepodlegości - szpital","street":"ŚWIDNIK","latitude":"51.220590000000","longitude":"22.695800000000"},{"id":"6681","name":"Nowickiego 01","street":"GEN. DUCHA","latitude":"51.261418037326","longitude":"22.530952692032"},{"id":"6682","name":"Nowickiego 02","street":"GEN. DUCHA","latitude":"51.260760083869","longitude":"22.530899047852"},{"id":"6683","name":"Nowickiego 03","street":"PÓŁNOCNA","latitude":"51.260921216199","longitude":"22.531703710556"},{"id":"4511","name":"Nowy Świat 01","street":"NOWY ŚWIAT","latitude":"51.225925000000","longitude":"22.564588890000"},{"id":"4512","name":"Nowy Świat 02","street":"NOWY ŚWIAT","latitude":"51.225644440000","longitude":"22.564027780000"},{"id":"5841","name":"Ofelii 01","street":"PARYSA","latitude":"51.240066670000","longitude":"22.493433330000"},{"id":"5842","name":"Ofelii 02","street":"PARYSA","latitude":"51.238663890000","longitude":"22.494275000000"},{"id":"6521","name":"Ogród Botaniczny 01","street":"AL. WARSZAWSKA","latitude":"51.258977780000","longitude":"22.512344440000"},{"id":"6522","name":"Ogród Botaniczny 02","street":"AL. WARSZAWSKA","latitude":"51.259670000000","longitude":"22.510985000000"},{"id":"6524","name":"Ogród Botaniczny 04","street":"AL. SOLIDARNOŚCI","latitude":"51.258416670000","longitude":"22.514869440000"},{"id":"1001","name":"Ogród Saski 01","street":"LIPOWA","latitude":"51.247361110000","longitude":"22.551402780000"},{"id":"1003","name":"Ogród Saski 03","street":"AL. RACŁAWICKIE","latitude":"51.247697000000","longitude":"22.550553000000"},{"id":"1081","name":"Okopowa 01","street":"OKOPOWA","latitude":"51.245397220000","longitude":"22.555050000000"},{"id":"1082","name":"Okopowa 02","street":"OKOPOWA","latitude":"51.245397220000","longitude":"22.555611110000"},{"id":"3231","name":"Olchowa 01","street":"KRAŃCOWA","latitude":"51.227888890000","longitude":"22.585016670000"},{"id":"1851","name":"Olimp 01","street":"AL. SPÓŁDZIELCZOŚCI PRACY","latitude":"51.265711110000","longitude":"22.572838890000"},{"id":"1852","name":"Olimp 02","street":"AL. SPÓŁDZIELCZOŚCI PRACY","latitude":"51.266947220000","longitude":"22.572558330000"},{"id":"1311","name":"Oratoryjna 01","street":"AL. KOMPOZYTORÓW POLSKICH","latitude":"51.258977780000","longitude":"22.553366670000"},{"id":"1312","name":"Oratoryjna 02","street":"AL. KOMPOZYTORÓW POLSKICH","latitude":"51.258977780000","longitude":"22.553086110000"},{"id":"3071","name":"Ordonówny NŻ 01","street":"AL. WITOSA","latitude":"51.231880000000","longitude":"22.608170000000"},{"id":"1321","name":"Orfeusz 01","street":"AL. KOMPOZYTORÓW POLSKICH","latitude":"51.263186110000","longitude":"22.551963890000"},{"id":"1322","name":"Orfeusz 02","street":"AL. KOMPOZYTORÓW POLSKICH","latitude":"51.261783330000","longitude":"22.551683330000"},{"id":"1323","name":"Orfeusz 03","street":"AL. SMORAWIŃSKIEGO","latitude":"51.262344440000","longitude":"22.553366670000"},{"id":"1324","name":"Orfeusz 04","street":"AL. SMORAWIŃSKIEGO","latitude":"51.262625000000","longitude":"22.550280560000"},{"id":"1501","name":"Organowa 01","street":"SZELIGOWSKIEGO","latitude":"51.257855560000","longitude":"22.558416670000"},{"id":"1502","name":"Organowa 02","street":"SZELIGOWSKIEGO","latitude":"51.256452780000","longitude":"22.558136110000"},{"id":"1162","name":"Os. Choiny 02","street":"KONCERTOWA","latitude":"51.282377780000","longitude":"22.545116670000"},{"id":"5601","name":"Os. Górki 01","street":"JANA PAWŁA II","latitude":"51.225363890000","longitude":"22.531816670000"},{"id":"5602","name":"Os. Górki 02","street":"JANA PAWŁA II","latitude":"51.225363890000","longitude":"22.530133330000"},{"id":"1421","name":"Os. Lipińskiego 01","street":"LIPIŃSKIEGO","latitude":"51.257855560000","longitude":"22.546238890000"},{"id":"1422","name":"Os. Lipińskiego 02","street":"LIPIŃSKIEGO","latitude":"51.257294440000","longitude":"22.545677780000"},{"id":"4561","name":"Os. Nałkowskich 01","street":"ROMERA","latitude":"51.210100000000","longitude":"22.541750000000"},{"id":"4562","name":"Os. Nałkowskich 02","street":"ROMERA","latitude":"51.210661110000","longitude":"22.542311110000"},{"id":"5861","name":"Os. Poręba 01","street":"GRANITOWA","latitude":"51.222571000000","longitude":"22.501972000000"},{"id":"5862","name":"Os. Poręba 02","street":"GRANITOWA","latitude":"51.222276000000","longitude":"22.502026000000"},{"id":"5131","name":"Os. Skarpa 01","street":"NADBYSTRZYCKA","latitude":"51.225925000000","longitude":"22.536980560000"},{"id":"5132","name":"Os. Skarpa 02","street":"NADBYSTRZYCKA","latitude":"51.225644440000","longitude":"22.537541670000"},{"id":"5501","name":"Os. Słowackiego 01","street":"WILEŃSKA","latitude":"51.243152780000","longitude":"22.520313890000"},{"id":"5502","name":"Os. Słowackiego 02","street":"WILEŃSKA","latitude":"51.243433330000","longitude":"22.521436110000"},{"id":"1141","name":"Os. Szymanowskiego 01","street":"KONCERTOWA","latitude":"51.275925000000","longitude":"22.543433330000"},{"id":"1142","name":"Os. Szymanowskiego 02","street":"KONCERTOWA","latitude":"51.274802780000","longitude":"22.542872220000"},{"id":"5801","name":"Os. Świt 01","street":"ROZTOCZE","latitude":"51.229176000000","longitude":"22.492338000000"},{"id":"5802","name":"Os. Świt 02","street":"ROZTOCZE","latitude":"51.229814000000","longitude":"22.492520000000"},{"id":"5351","name":"Os. Widok 01","street":"FILARETÓW","latitude":"51.223400000000","longitude":"22.522838890000"},{"id":"5352","name":"Os. Widok 02","street":"FILARETÓW","latitude":"51.223119440000","longitude":"22.523119440000"},{"id":"4141","name":"Osmolicka 01","street":"OSMOLICKA","latitude":"51.192872220000","longitude":"22.546519440000"},{"id":"4142","name":"Osmolicka 02","street":"ZEMBORZYCKA","latitude":"51.195958330000","longitude":"22.548763890000"},{"id":"4143","name":"Osmolicka 03","street":"ŻEGLARSKA","latitude":"51.195116670000","longitude":"22.545677780000"},{"id":"4311","name":"Ośrodek Wrotków 01","street":"OSMOLICKA","latitude":"51.188383330000","longitude":"22.544836110000"},{"id":"4312","name":"Ośrodek Wrotków 02","street":"OSMOLICKA","latitude":"51.189225000000","longitude":"22.545397220000"},{"id":"2451","name":"Outlet Center NŻ 01","street":"MEŁGIEWSKA","latitude":"51.246490919711","longitude":"22.614095807076"},{"id":"2452","name":"Outlet Center NŻ 02","street":"MEŁGIEWSKA","latitude":"51.246766272540","longitude":"22.614090442658"},{"id":"1541","name":"Paderewskiego 01","street":"CHOINY","latitude":"51.276629000000","longitude":"22.554005000000"},{"id":"1542","name":"Paderewskiego 02","street":"CHOINY","latitude":"51.276205560000","longitude":"22.553647220000"},{"id":"1543","name":"Paderewskiego 03","street":"ZELWEROWICZA","latitude":"51.277367169758","longitude":"22.553290128708"},{"id":"1545","name":"Paderewskiego 05","street":"CHOINY","latitude":"51.277736297088","longitude":"22.554008960724"},{"id":"1546","name":"Paderewskiego 06","street":"WOJTASA","latitude":"51.276830000000","longitude":"22.555740000000"},{"id":"1301","name":"Paganiniego 01","street":"AL. KOMPOZYTORÓW POLSKICH","latitude":"51.254208330000","longitude":"22.552525000000"},{"id":"1302","name":"Paganiniego 02","street":"PÓŁNOCNA","latitude":"51.253647220000","longitude":"22.549886110000"},{"id":"1303","name":"Paganiniego 03","street":"PÓŁNOCNA","latitude":"51.253647220000","longitude":"22.550561110000"},{"id":"1304","name":"Paganiniego 04","street":"AL. KOMPOZYTORÓW POLSKICH","latitude":"51.254208330000","longitude":"22.551683330000"},{"id":"5211","name":"Pana Tadeusza 01","street":"GŁĘBOKA","latitude":"51.244836110000","longitude":"22.530975000000"},{"id":"5212","name":"Pana Tadeusza 02","street":"GŁĘBOKA","latitude":"51.244275000000","longitude":"22.531536110000"},{"id":"2827","name":"Pancerniaków","street":"GRYGOWEJ","latitude":"51.230390000000","longitude":"22.621730000000"},{"id":"2825","name":"Pancerniaków  05","street":"GRYGOWEJ","latitude":"51.230180000000","longitude":"22.622100000000"},{"id":"2821","name":"Pancerniaków 01","street":"GRYGOWEJ","latitude":"51.230350000000","longitude":"22.621681000000"},{"id":"2822","name":"Pancerniaków 02","street":"GRYGOWEJ","latitude":"51.231255560000","longitude":"22.623119440000"},{"id":"2823","name":"Pancerniaków 03","street":"PANCERNIAKÓW","latitude":"51.230628486187","longitude":"22.623102664948"},{"id":"2824","name":"Pancerniaków 04","street":"GRYGOWEJ","latitude":"51.229807000000","longitude":"22.621544000000"},{"id":"2826","name":"Pancerniaków 06","street":"PANCERNIAKÓW","latitude":"51.231140000000","longitude":"22.622000000000"},{"id":"3081","name":"Pancerniaków Felicity 01","street":"PANCERNIAKÓW","latitude":"51.232690000000","longitude":"22.616820000000"},{"id":"3082","name":"Pancerniaków Felicity 02","street":"PANCERNIAKÓW","latitude":"51.232610000000","longitude":"22.617050000000"},{"id":"3083","name":"Pancerniaków Felicity 03","street":"PANCERNIAKÓW","latitude":"51.232620000000","longitude":"22.616950000000"},{"id":"9431","name":"Panieńszczyzna - cmentarz NŻ 01","street":"PANIEŃSZCZYZNA","latitude":"51.298006899210","longitude":"22.445014715195"},{"id":"9432","name":"Panieńszczyzna - cmentarz NŻ 02","street":"PANIEŃSZCZYZNA","latitude":"51.296698739213","longitude":"22.446967363358"},{"id":"9421","name":"Panieńszczyzna NŻ 01","street":"PANIEŃSZCZYZNA","latitude":"51.292686816110","longitude":"22.454300522804"},{"id":"9422","name":"Panieńszczyzna NŻ 02","street":"PANIEŃSZCZYZNA","latitude":"51.291968926671","longitude":"22.455271482468"},{"id":"4771","name":"Parczewska 01","street":"JANOWSKA","latitude":"51.210380560000","longitude":"22.530413890000"},{"id":"4772","name":"Parczewska 02","street":"JANOWSKA","latitude":"51.210661110000","longitude":"22.530975000000"},{"id":"5301","name":"Park Akademicki 01","street":"FILARETÓW","latitude":"51.243152780000","longitude":"22.535297220000"},{"id":"5303","name":"Park Akademicki 03","street":"GŁĘBOKA","latitude":"51.243994440000","longitude":"22.534736110000"},{"id":"5304","name":"Park Akademicki 04","street":"GŁĘBOKA","latitude":"51.242591670000","longitude":"22.540066670000"},{"id":"3111","name":"Park Bronowice 01","street":"ŁĘCZYŃSKA","latitude":"51.236980560000","longitude":"22.577888890000"},{"id":"3112","name":"Park Bronowice 02","street":"WOLSKA","latitude":"51.236138890000","longitude":"22.575925000000"},{"id":"3113","name":"Park Bronowice 03","street":"DROGA MĘCZENNIKÓW MAJDANKA","latitude":"51.235858330000","longitude":"22.577327780000"},{"id":"3114","name":"Park Bronowice 04","street":"FABRYCZNA","latitude":"51.236980560000","longitude":"22.575644440000"},{"id":"3261","name":"Park Naukowo-Technologiczny 01","street":"DROGA MĘCZENNIKÓW MAJDANKA","latitude":"51.222959000000","longitude":"22.614495000000"},{"id":"3263","name":"Park Naukowo-Technologiczny 03","street":"DEKUTOWSKIEGO","latitude":"51.223697000000","longitude":"22.614350000000"},{"id":"3251","name":"Pawia 01","street":"PAWIA","latitude":"51.227327780000","longitude":"22.573680560000"},{"id":"5551","name":"Perłowa 01","street":"JANA PAWŁA II","latitude":"51.225083330000","longitude":"22.503927780000"},{"id":"5552","name":"Perłowa 02","street":"JANA PAWŁA II","latitude":"51.225363890000","longitude":"22.505330560000"},{"id":"5311","name":"Piastowska 01","street":"FILARETÓW","latitude":"51.240627780000","longitude":"22.530975000000"},{"id":"5312","name":"Piastowska 02","street":"FILARETÓW","latitude":"51.240347220000","longitude":"22.531536110000"},{"id":"8961","name":"Pietrzakowizna - zakład usługowy 01","street":"PIETRZAKOWIZNA","latitude":"51.236419440000","longitude":"22.429011110000"},{"id":"8962","name":"Pietrzakowizna - zakład usługowy 02","street":"PIETRZAKOWIZNA","latitude":"51.236419440000","longitude":"22.429011110000"},{"id":"9151","name":"Pietrzakowizna 01","street":"MOTYCZ","latitude":"51.240347220000","longitude":"22.435858330000"},{"id":"9481","name":"Piotrawin-Wygoda 01","street":"PIOTRAWIN","latitude":"51.340297390877","longitude":"22.432880401612"},{"id":"9482","name":"Piotrawin-Wygoda 02","street":"PIOTRAWIN","latitude":"51.340572181701","longitude":"22.432944774628"},{"id":"9471","name":"Piotrowice Wielkie NŻ 01","street":"PIOTRAWIN","latitude":"51.336765176782","longitude":"22.431228160858"},{"id":"9472","name":"Piotrowice Wielkie NŻ 02","street":"PIOTRAWIN","latitude":"51.335639100654","longitude":"22.430455684662"},{"id":"3701","name":"Plac Bychawski 01","street":"KUNICKIEGO","latitude":"51.233894440000","longitude":"22.570875000000"},{"id":"3702","name":"Plac Bychawski 02","street":"WOLSKA","latitude":"51.234455560000","longitude":"22.571997220000"},{"id":"3703","name":"Plac Bychawski 03","street":"WOLSKA","latitude":"51.234455560000","longitude":"22.571997220000"},{"id":"1021","name":"Plac Litewski 01","street":"3 MAJA","latitude":"51.249351000000","longitude":"22.557959000000"},{"id":"1022","name":"Plac Litewski 02","street":"3 MAJA","latitude":"51.249044440000","longitude":"22.558136110000"},{"id":"1023","name":"Plac Litewski 03","street":"KRAKOWSKIE PRZEDMIEŚCIE","latitude":"51.247922220000","longitude":"22.559258330000"},{"id":"1024","name":"Plac Litewski 04","street":"KRAKOWSKIE PRZEDMIEŚCIE","latitude":"51.247922220000","longitude":"22.558977780000"},{"id":"1921","name":"Plac Singera 01","street":"LWOWSKA","latitude":"51.252805560000","longitude":"22.576766670000"},{"id":"1922","name":"Plac Singera 02","street":"LWOWSKA","latitude":"51.253086110000","longitude":"22.576486110000"},{"id":"1041","name":"Plac Wolności 01","street":"NARUTOWICZA","latitude":"51.246800000000","longitude":"22.562905560000"},{"id":"1042","name":"Plac Wolności 02","street":"NARUTOWICZA","latitude":"51.246800000000","longitude":"22.562905560000"},{"id":"7531","name":"Pliszczyn - szkoła 01","street":"PLISZCZYN","latitude":"51.299616891110","longitude":"22.634496688843"},{"id":"7532","name":"Pliszczyn - szkoła 02","street":"PLISZCZYN","latitude":"51.299509560073","longitude":"22.633917331696"},{"id":"7522","name":"Pliszczyn 02","street":"PLISZCZYN","latitude":"51.301683330000","longitude":"22.638663890000"},{"id":"9731","name":"Płouszowice - cegielnia NŻ 01","street":"PŁOUSZOWICE","latitude":"51.266815585633","longitude":"22.419222593308"},{"id":"9732","name":"Płouszowice - cegielnia NŻ 02","street":"PŁOUSZOWICE","latitude":"51.266688038943","longitude":"22.419576644898"},{"id":"9751","name":"Płouszowice - kapliczka NŻ 01","street":"PŁOUSZOWICE","latitude":"51.267674838317","longitude":"22.396434545517"},{"id":"9752","name":"Płouszowice - kapliczka NŻ 02","street":"PŁOUSZOWICE","latitude":"51.267523798970","longitude":"22.397287487984"},{"id":"9741","name":"Płouszowice Drugie - zajazd NŻ 01","street":"PŁOUSZOWICE","latitude":"51.267285491435","longitude":"22.406809329987"},{"id":"9742","name":"Płouszowice Drugie - zajazd NŻ 02","street":"PŁOUSZOWICE","latitude":"51.267063965013","longitude":"22.409158945084"},{"id":"9711","name":"Płouszowice Kolonia NŻ 01","street":"PŁOUSZOWICE","latitude":"51.260236399896","longitude":"22.441399097443"},{"id":"9712","name":"Płouszowice Kolonia NŻ 02","street":"PŁOUSZOWICE","latitude":"51.260478100933","longitude":"22.440540790558"},{"id":"9721","name":"Płouszowice Pierwsze NŻ 01","street":"PŁOUSZOWICE","latitude":"51.263942342800","longitude":"22.431592941284"},{"id":"9722","name":"Płouszowice Pierwsze NŻ 02","street":"PŁOUSZOWICE","latitude":"51.263217290525","longitude":"22.433524131775"},{"id":"5721","name":"Poczekajka 01","street":"AL. KRAŚNICKA","latitude":"51.242311110000","longitude":"22.505891670000"},{"id":"5722","name":"Poczekajka 02","street":"AL. KRAŚNICKA","latitude":"51.243152780000","longitude":"22.508416670000"},{"id":"5723","name":"Poczekajka 03","street":"BOHATERÓW MONTE CASSINO","latitude":"51.243391925956","longitude":"22.506625056267"},{"id":"5724","name":"Poczekajka 04","street":"BOHATERÓW M. CASSINO","latitude":"51.241469440000","longitude":"22.508136110000"},{"id":"3201","name":"Pogodna 01","street":"KRAŃCOWA","latitude":"51.234736110000","longitude":"22.594555560000"},{"id":"3202","name":"Pogodna 02","street":"KRAŃCOWA","latitude":"51.235858330000","longitude":"22.594555560000"},{"id":"6121","name":"Polfa 01","street":"WOJCIECHOWSKA","latitude":"51.247080560000","longitude":"22.501122220000"},{"id":"6122","name":"Polfa 02","street":"WOJCIECHOWSKA","latitude":"51.247080560000","longitude":"22.502805560000"},{"id":"6941","name":"Poligon 01","street":"POLIGONOWA","latitude":"51.280690000000","longitude":"22.529850000000"},{"id":"6942","name":"Poligon 02","street":"POLIGONOWA","latitude":"51.284175000000","longitude":"22.530133330000"},{"id":"6911","name":"Poligonowa - osiedle 01","street":"POLIGONOWA","latitude":"51.268911110000","longitude":"22.529011110000"},{"id":"6912","name":"Poligonowa - osiedle 02","street":"POLIGONOWA","latitude":"51.269191670000","longitude":"22.528730560000"},{"id":"6952","name":"Poligonowa 02","street":"POLIGONOWA","latitude":"51.284170000000","longitude":"22.530130000000"},{"id":"6921","name":"Poligonowa I 01","street":"POLIGONOWA","latitude":"51.275925000000","longitude":"22.529572220000"},{"id":"6922","name":"Poligonowa I 02","street":"POLIGONOWA","latitude":"51.275925000000","longitude":"22.529291670000"},{"id":"5111","name":"Politechnika 01","street":"NADBYSTRZYCKA","latitude":"51.236138890000","longitude":"22.546800000000"},{"id":"5112","name":"Politechnika 02","street":"NADBYSTRZYCKA","latitude":"51.236700000000","longitude":"22.548483330000"},{"id":"6701","name":"Popiełuszki 01","street":"AL. SIKORSKIEGO","latitude":"51.255611110000","longitude":"22.530694440000"},{"id":"6702","name":"Popiełuszki 02","street":"AL. SIKORSKIEGO","latitude":"51.254769440000","longitude":"22.528169440000"},{"id":"4881","name":"Poranna 01","street":"CIENISTA","latitude":"51.153647220000","longitude":"22.510100000000"},{"id":"4882","name":"Poranna 02","street":"CIENISTA","latitude":"51.154488890000","longitude":"22.510661110000"},{"id":"8481","name":"Port Lotniczy Lublin - odloty 01","street":"ŚWIDNIK","latitude":"51.235562782758","longitude":"22.716357707978"},{"id":"8492","name":"Port Lotniczy Lublin - przyloty 02","street":"ŚWIDNIK","latitude":"51.235092552662","longitude":"22.713128328324"},{"id":"3911","name":"Powojowa 01","street":"ABRAMOWICKA","latitude":"51.195116670000","longitude":"22.585577780000"},{"id":"3912","name":"Powojowa 02","street":"ABRAMOWICKA","latitude":"51.195677780000","longitude":"22.585858330000"},{"id":"5661","name":"Poznańska 01","street":"ORKANA","latitude":"51.233333330000","longitude":"22.499325000000"},{"id":"5662","name":"Poznańska 02","street":"ORKANA","latitude":"51.233333330000","longitude":"22.497922220000"},{"id":"5121","name":"Pozytywistów 01","street":"NADBYSTRZYCKA","latitude":"51.231816670000","longitude":"22.537822220000"},{"id":"5122","name":"Pozytywistów 02","street":"NADBYSTRZYCKA","latitude":"51.232377780000","longitude":"22.538663890000"},{"id":"4992","name":"Prawiedniki 02","street":"OSMOLICKA","latitude":"51.140908330000","longitude":"22.503927780000"},{"id":"1801","name":"Probostwo 01","street":"LUBARTOWSKA","latitude":"51.252244440000","longitude":"22.568350000000"},{"id":"1802","name":"Probostwo 02","street":"LUBARTOWSKA","latitude":"51.252805560000","longitude":"22.568630560000"},{"id":"1701","name":"Prusa 01","street":"JACZEWSKIEGO","latitude":"51.257294440000","longitude":"22.565711110000"},{"id":"1702","name":"Prusa 02","street":"PRUSA","latitude":"51.255330560000","longitude":"22.563466670000"},{"id":"1703","name":"Prusa 03","street":"PÓŁNOCNA","latitude":"51.255330560000","longitude":"22.562905560000"},{"id":"1705","name":"Prusa 05","street":"PÓŁNOCNA","latitude":"51.255245000000","longitude":"22.561626000000"},{"id":"2611","name":"Przyjaźni 01","street":"ŁĘCZYŃSKA","latitude":"51.242030560000","longitude":"22.588663890000"},{"id":"2612","name":"Przyjaźni 02","street":"ŁĘCZYŃSKA","latitude":"51.242872220000","longitude":"22.590627780000"},{"id":"2613","name":"Przyjaźni 03","street":"AL. WITOSA","latitude":"51.242030560000","longitude":"22.591469440000"},{"id":"8811","name":"Pszczela - cmentarz 01","street":"PSZCZELA","latitude":"51.178169440000","longitude":"22.502805560000"},{"id":"8812","name":"Pszczela - cmentarz 02","street":"PSZCZELA","latitude":"51.178169440000","longitude":"22.502805560000"},{"id":"8821","name":"Pszczela - granica miasta 01","street":"PSZCZELA","latitude":"51.181816670000","longitude":"22.496800000000"},{"id":"8822","name":"Pszczela - granica miasta 02","street":"PSZCZELA","latitude":"51.181816670000","longitude":"22.496800000000"},{"id":"4911","name":"Ptasia 01","street":"KRĘŻNICKA","latitude":"51.159258330000","longitude":"22.485577780000"},{"id":"4912","name":"Ptasia 02","street":"KRĘŻNICKA","latitude":"51.159258330000","longitude":"22.485858330000"},{"id":"2921","name":"PTHW 01","street":"AL. WITOSA","latitude":"51.232938890000","longitude":"22.604769440000"},{"id":"1201","name":"Puławska 01","street":"POPIEŁUSZKI","latitude":"51.254208330000","longitude":"22.532938890000"},{"id":"1202","name":"Puławska 02","street":"POPIEŁUSZKI","latitude":"51.254208330000","longitude":"22.532097220000"},{"id":"8341","name":"Racławicka I 01","street":"ŚWIDNIK","latitude":"51.215280000000","longitude":"22.703210000000"},{"id":"8342","name":"Racławicka I 02","street":"ŚWIDNIK","latitude":"51.215050000000","longitude":"22.705790000000"},{"id":"8331","name":"Racławicka II 01","street":"ŚWIDNIK","latitude":"51.215860000000","longitude":"22.692980000000"},{"id":"8332","name":"Racławicka II 02","street":"ŚWIDNIK","latitude":"51.215030000000","longitude":"22.705790000000"},{"id":"1641","name":"Rapackiego 01","street":"RAPACKIEGO","latitude":"51.273400000000","longitude":"22.566666670000"},{"id":"1642","name":"Rapackiego 02","street":"RAPACKIEGO","latitude":"51.273431000000","longitude":"22.567253000000"},{"id":"2751","name":"Rataja 01","street":"RATAJA","latitude":"51.235577780000","longitude":"22.627608330000"},{"id":"2752","name":"Rataja 02","street":"RATAJA","latitude":"51.235577780000","longitude":"22.628450000000"},{"id":"4781","name":"Rąblowska 01","street":"JANOWSKA","latitude":"51.205611110000","longitude":"22.528730560000"},{"id":"4782","name":"Rąblowska 02","street":"JANOWSKA","latitude":"51.206172220000","longitude":"22.529011110000"},{"id":"3751","name":"Reja 01","street":"KUNICKIEGO","latitude":"51.212344440000","longitude":"22.583613890000"},{"id":"3752","name":"Reja 02","street":"KUNICKIEGO","latitude":"51.211783330000","longitude":"22.584175000000"},{"id":"6742","name":"Relaksowa 02","street":"WILLOWA","latitude":"51.265711110000","longitude":"22.517227780000"},{"id":"1401","name":"Rogowskiego 01","street":"PÓŁNOCNA","latitude":"51.256733330000","longitude":"22.540347220000"},{"id":"1402","name":"Rogowskiego 02","street":"PÓŁNOCNA","latitude":"51.256733330000","longitude":"22.539505560000"},{"id":"4551","name":"Romera - kościół 01","street":"ROMERA","latitude":"51.214869440000","longitude":"22.545397220000"},{"id":"4552","name":"Romera - kościół 02","street":"ROMERA","latitude":"51.214588890000","longitude":"22.545397220000"},{"id":"4571","name":"Romera 01","street":"ROMERA","latitude":"51.205611110000","longitude":"22.542311110000"},{"id":"4572","name":"Romera 02","street":"ROMERA","latitude":"51.206172220000","longitude":"22.542311110000"},{"id":"2111","name":"Rondo Berbeckiego 01","street":"LWOWSKA","latitude":"51.257510000000","longitude":"22.584304000000"},{"id":"2112","name":"Rondo Berbeckiego 02","street":"LWOWSKA","latitude":"51.257855560000","longitude":"22.583894440000"},{"id":"2114","name":"Rondo Berbeckiego 04","street":"AL. ANDERSA","latitude":"51.258810000000","longitude":"22.583350000000"},{"id":"2115","name":"Rondo Berbeckiego 05","street":"AL. ANDERSA","latitude":"51.258410000000","longitude":"22.583210000000"},{"id":"1511","name":"Rondo Kamińskiego 01","street":"AL. SMORAWIŃSKIEGO","latitude":"51.263466670000","longitude":"22.560380560000"},{"id":"1512","name":"Rondo Kamińskiego 02","street":"AL. SMORAWIŃSKIEGO","latitude":"51.262905560000","longitude":"22.559819440000"},{"id":"1514","name":"Rondo Kamińskiego 04","street":"SZELIGOWSKIEGO","latitude":"51.262344440000","longitude":"22.558136110000"},{"id":"3061","name":"Rondo Karszo-Siedlewskiego NŻ 01","street":"VETTERÓW","latitude":"51.223360000000","longitude":"22.642770000000"},{"id":"3062","name":"Rondo Karszo-Siedlewskiego NŻ 02","street":"VETTERÓW","latitude":"51.224060000000","longitude":"22.640420000000"},{"id":"3063","name":"Rondo Karszo-Siedlewskiego NŻ 03","street":"BRACI KRAUSSE","latitude":"51.224280000000","longitude":"22.643060000000"},{"id":"1351","name":"Rondo Kilara 01","street":"KONCERTOWA","latitude":"51.267800000000","longitude":"22.542980000000"},{"id":"1352","name":"Rondo Kilara 02","street":"KONCERTOWA","latitude":"51.267440000000","longitude":"22.542550000000"},{"id":"1354","name":"Rondo Kilara 04","street":"AL. KOMPOZYTORÓW POLSKICH","latitude":"51.267204936496","longitude":"22.543870210648"},{"id":"5931","name":"Rondo Krwiodawców 01","street":"AL. SIKORSKIEGO","latitude":"51.251963890000","longitude":"22.526486110000"},{"id":"5932","name":"Rondo Krwiodawców 02","street":"AL. RACŁAWICKIE","latitude":"51.250841670000","longitude":"22.526766670000"},{"id":"5933","name":"Rondo Krwiodawców 03","street":"AL. KRAŚNICKA","latitude":"51.250280560000","longitude":"22.523961110000"},{"id":"5935","name":"Rondo Krwiodawców 05","street":"AL. WARSZAWSKA","latitude":"51.252371000000","longitude":"22.523721000000"},{"id":"3101","name":"Rondo Lubelskiego Lipca 01","street":"FABRYCZNA","latitude":"51.237541670000","longitude":"22.572558330000"},{"id":"3102","name":"Rondo Lubelskiego Lipca 02","street":"LUBELSKIEGO LIPCA 80","latitude":"51.236980560000","longitude":"22.570033330000"},{"id":"3103","name":"Rondo Lubelskiego Lipca 03","street":"LUBELSKIEGO LIPCA 80","latitude":"51.237688835000","longitude":"22.570611835000"},{"id":"3104","name":"Rondo Lubelskiego Lipca 04","street":"AL. ZYGMUNTOWSKIE","latitude":"51.238102780000","longitude":"22.570033330000"},{"id":"2841","name":"Rondo Przemysłowców 01","street":"SPIESSA","latitude":"51.225845076000","longitude":"22.646958231926"},{"id":"2844","name":"Rondo Przemysłowców 04","street":"BRACI KRAUSSE","latitude":"51.225660065554","longitude":"22.645268440247"},{"id":"4691","name":"Rondo Sportowców NŻ 01","street":"GAZOWA","latitude":"51.230638563575","longitude":"22.564383745194"},{"id":"4692","name":"Rondo Sportowców NŻ 02","street":"STADIONOWA","latitude":"51.231088684619","longitude":"22.563643455506"},{"id":"4693","name":"Rondo Sportowców NŻ 03","street":"MŁYŃSKA","latitude":"51.231095402811","longitude":"22.564335465431"},{"id":"4695","name":"Rondo Sportowców NŻ 05","street":"KROCHMALNA","latitude":"51.229947718550","longitude":"22.561881244183"},{"id":"4871","name":"Roślinna 01","street":"CIENISTA","latitude":"51.163747220000","longitude":"22.506172220000"},{"id":"4872","name":"Roślinna 02","street":"CIENISTA","latitude":"51.164308330000","longitude":"22.505611110000"},{"id":"5571","name":"Roztocze 01","street":"JANA PAWŁA II","latitude":"51.226058000000","longitude":"22.490997000000"},{"id":"5572","name":"Roztocze 02","street":"JANA PAWŁA II","latitude":"51.225644440000","longitude":"22.492591670000"},{"id":"5574","name":"Roztocze 04","street":"ROZTOCZE","latitude":"51.226193000000","longitude":"22.492005000000"},{"id":"7292","name":"Rudnik - kościół 02","street":"RUDNIK","latitude":"51.248364629571","longitude":"22.518861293793"},{"id":"7301","name":"Rudnik 01","street":"RUDNIK","latitude":"51.248364629571","longitude":"22.518861293793"},{"id":"7302","name":"Rudnik 02","street":"RUDNIK","latitude":"51.281160000000","longitude":"22.603881000000"},{"id":"2391","name":"Rudnik PKP 01","street":"PLISZCZYŃSKA","latitude":"51.288383330000","longitude":"22.624522220000"},{"id":"2392","name":"Rudnik PKP 02","street":"PLISZCZYŃSKA","latitude":"51.288383330000","longitude":"22.624522220000"},{"id":"2251","name":"Rusałka 01","street":"ZAMOJSKA","latitude":"51.240190933955","longitude":"22.570311427117"},{"id":"5321","name":"Rzeckiego 01","street":"FILARETÓW","latitude":"51.234736110000","longitude":"22.529011110000"},{"id":"5322","name":"Rzeckiego 02","street":"FILARETÓW","latitude":"51.235297220000","longitude":"22.529291670000"},{"id":"5751","name":"Rzemieślnicza 01","street":"AL. KRAŚNICKA","latitude":"51.234455560000","longitude":"22.488383330000"},{"id":"5752","name":"Rzemieślnicza 02","street":"AL. KRAŚNICKA","latitude":"51.235016670000","longitude":"22.490347220000"},{"id":"5753","name":"Rzemieślnicza 03","street":"ROZTOCZE","latitude":"51.233894440000","longitude":"22.489786110000"},{"id":"3511","name":"Sachsów 01","street":"GŁUSKA","latitude":"51.198763890000","longitude":"22.594275000000"},{"id":"3512","name":"Sachsów 02","street":"GŁUSKA","latitude":"51.199605560000","longitude":"22.594555560000"},{"id":"4401","name":"Samsonowicza 01","street":"DIAMENTOWA","latitude":"51.210100000000","longitude":"22.548763890000"},{"id":"4402","name":"Samsonowicza 02","street":"DIAMENTOWA","latitude":"51.210380560000","longitude":"22.548483330000"},{"id":"1832","name":"Sapiehy 02","street":"AL. SPÓŁDZIELCZOŚCI PRACY","latitude":"51.260380560000","longitude":"22.572277780000"},{"id":"3761","name":"Sierpińskiego 01","street":"GŁUSKA","latitude":"51.207575000000","longitude":"22.587822220000"},{"id":"3762","name":"Sierpińskiego 02","street":"KUNICKIEGO","latitude":"51.208697220000","longitude":"22.586138890000"},{"id":"3763","name":"Sierpińskiego 03","street":"ABRAMOWICKA","latitude":"51.206452780000","longitude":"22.586419440000"},{"id":"3764","name":"Sierpińskiego 04","street":"ABRAMOWICKA","latitude":"51.207294440000","longitude":"22.586419440000"},{"id":"3765","name":"Sierpińskiego 05","street":"ABRAMOWICKA","latitude":"51.208735000000","longitude":"22.585991000000"},{"id":"6711","name":"Sikorskiego 01","street":"AL. SOLIDARNOŚCI","latitude":"51.257602340796","longitude":"22.535235958178"},{"id":"6712","name":"Sikorskiego 02","street":"AL. SIKORSKIEGO","latitude":"51.258136110000","longitude":"22.531536110000"},{"id":"6713","name":"Sikorskiego 03","street":"PÓŁNOCNA","latitude":"51.258697220000","longitude":"22.533219440000"},{"id":"6714","name":"Sikorskiego 04","street":"GEN. DUCHA","latitude":"51.260155832602","longitude":"22.531081438065"},{"id":"6715","name":"Sikorskiego 05","street":"AL. SOLIDARNOŚCI","latitude":"51.259258330000","longitude":"22.530694440000"},{"id":"6531","name":"Skansen 01","street":"ZBOŻOWA","latitude":"51.264027780000","longitude":"22.504769440000"},{"id":"6532","name":"Skansen 02","street":"AL. WARSZAWSKA","latitude":"51.263186110000","longitude":"22.505050000000"},{"id":"6533","name":"Skansen 03","street":"AL. WARSZAWSKA","latitude":"51.264027780000","longitude":"22.503927780000"},{"id":"6534","name":"Skansen 04","street":"AL. WARSZAWSKA","latitude":"51.263285000000","longitude":"22.504318000000"},{"id":"2652","name":"Składowa 02","street":"ŁĘCZYŃSKA","latitude":"51.238914712340","longitude":"22.581775188446"},{"id":"6541","name":"Skowronkowa 01","street":"AL. WARSZAWSKA","latitude":"51.265711110000","longitude":"22.500841670000"},{"id":"6542","name":"Skowronkowa 02","street":"AL. WARSZAWSKA","latitude":"51.267788890000","longitude":"22.497080560000"},{"id":"5511","name":"Skrzetuskiego 01","street":"BOHATERÓW M. CASSINO","latitude":"51.239505560000","longitude":"22.512905560000"},{"id":"5512","name":"Skrzetuskiego 02","street":"BOHATERÓW M. CASSINO","latitude":"51.239505560000","longitude":"22.515150000000"},{"id":"3331","name":"Skrzynicka 01","street":"WYZWOLENIA","latitude":"51.214588890000","longitude":"22.591750000000"},{"id":"3332","name":"Skrzynicka 02","street":"WYZWOLENIA","latitude":"51.215150000000","longitude":"22.591469440000"},{"id":"1332","name":"Skrzypcowa 02","street":"AL. KOMPOZYTORÓW POLSKICH","latitude":"51.265150000000","longitude":"22.550280560000"},{"id":"6271","name":"Sławin NŻ 01","street":"SŁAWIN","latitude":"51.256140716901","longitude":"22.492060661316"},{"id":"6272","name":"Sławin NŻ 02","street":"SŁAWIN","latitude":"51.256335437960","longitude":"22.492028474808"},{"id":"6781","name":"Sławinkowska 01","street":"SŁAWINKOWSKA","latitude":"51.283820000000","longitude":"22.500460000000"},{"id":"6782","name":"Sławinkowska 02","street":"SŁAWINKOWSKA","latitude":"51.283613890000","longitude":"22.500000000000"},{"id":"4521","name":"Smoluchowskiego 01","street":"NOWY ŚWIAT","latitude":"51.224241670000","longitude":"22.558136110000"},{"id":"4522","name":"Smoluchowskiego 02","street":"NOWY ŚWIAT","latitude":"51.223961110000","longitude":"22.557575000000"},{"id":"4231","name":"Smoluchowskiego koszary 01","street":"INŻYNIERSKA","latitude":"51.218630560000","longitude":"22.559538890000"},{"id":"4232","name":"Smoluchowskiego koszary 02","street":"SMOLUCHOWSKIEGO","latitude":"51.218630560000","longitude":"22.560380560000"},{"id":"9552","name":"Smugi 02","street":"SMUGI","latitude":"51.333497000000","longitude":"22.497858000000"},{"id":"9531","name":"Snopków - osiedle 01","street":"SNOPKÓW","latitude":"51.311220000000","longitude":"22.490690000000"},{"id":"9532","name":"Snopków - osiedle 02","street":"SNOPKÓW","latitude":"51.311500000000","longitude":"22.490660000000"},{"id":"9511","name":"Snopków I 01","street":"SNOPKÓW","latitude":"51.302840000000","longitude":"22.491830000000"},{"id":"9512","name":"Snopków I 02","street":"SNOPKÓW","latitude":"51.301080000000","longitude":"22.492400000000"},{"id":"9521","name":"Snopków II 01","street":"SNOPKÓW","latitude":"51.308220000000","longitude":"22.490780000000"},{"id":"9522","name":"Snopków II 02","street":"SNOPKÓW","latitude":"51.306160000000","longitude":"22.490780000000"},{"id":"5921","name":"Spadochroniarzy 01","street":"AL. RACŁAWICKIE","latitude":"51.250561110000","longitude":"22.531255560000"},{"id":"5922","name":"Spadochroniarzy 02","street":"AL. RACŁAWICKIE","latitude":"51.250000000000","longitude":"22.532658330000"},{"id":"8981","name":"Stara Wieś - remiza 01","street":"MOTYCZ","latitude":"51.240627780000","longitude":"22.390066670000"},{"id":"8982","name":"Stara Wieś - remiza 02","street":"MOTYCZ","latitude":"51.240908330000","longitude":"22.396519440000"},{"id":"8971","name":"Stara Wieś - stawy 01","street":"MOTYCZ","latitude":"51.246238890000","longitude":"22.405891670000"},{"id":"8972","name":"Stara Wieś - stawy 02","street":"MOTYCZ","latitude":"51.246238890000","longitude":"22.405891670000"},{"id":"8691","name":"Stasin 01","street":"STASIN","latitude":"51.213033362577","longitude":"22.491125802994"},{"id":"8692","name":"Stasin 02","street":"STASIN","latitude":"51.213040083404","longitude":"22.491448392868"},{"id":"8661","name":"Stasin Polny PKP 01","street":"STASIN","latitude":"51.212556181360","longitude":"22.469669580460"},{"id":"8662","name":"Stasin Polny PKP 02","street":"STASIN","latitude":"51.212885504137","longitude":"22.471525669098"},{"id":"8651","name":"Stasin Polny-wiadukt 01","street":"STASIN","latitude":"51.214310302074","longitude":"22.455593347550"},{"id":"8652","name":"Stasin Polny-wiadukt 02","street":"STASIN","latitude":"51.214491759023","longitude":"22.455528974533"},{"id":"8671","name":"Stasin-szkoła 01","street":"STASIN","latitude":"51.212838458171","longitude":"22.478864192963"},{"id":"8672","name":"Stasin-szkoła 02","street":"STASIN","latitude":"51.212986316761","longitude":"22.478832006455"},{"id":"1961","name":"Stefczyka 01 NŻ","street":"WOJTASA","latitude":"51.276030000000","longitude":"22.563140000000"},{"id":"1962","name":"Stefczyka 02 NŻ","street":"DO DYSA","latitude":"51.275670000000","longitude":"22.564680000000"},{"id":"2221","name":"Stolarska 01","street":"AL. UNII LUBELSKIEJ","latitude":"51.241750000000","longitude":"22.572558330000"},{"id":"2222","name":"Stolarska 02","street":"AL. UNII LUBELSKIEJ","latitude":"51.243433330000","longitude":"22.573400000000"},{"id":"3551","name":"Strojnowskiego - most 01","street":"STROJNOWSKIEGO","latitude":"51.181255560000","longitude":"22.589225000000"},{"id":"3552","name":"Strojnowskiego - most 02","street":"STROJNOWSKIEGO","latitude":"51.180975000000","longitude":"22.588383330000"},{"id":"3531","name":"Strojnowskiego 01","street":"GŁUSKA","latitude":"51.185577780000","longitude":"22.596800000000"},{"id":"3532","name":"Strojnowskiego 02","street":"GŁUSKA","latitude":"51.185016670000","longitude":"22.596800000000"},{"id":"1671","name":"Strzeszewskiego 01","street":"CYNAMONOWA","latitude":"51.275961103035","longitude":"22.580375075341"},{"id":"1672","name":"Strzeszewskiego 02","street":"STRZEMBOSZA","latitude":"51.274904007832","longitude":"22.579865455627"},{"id":"5331","name":"Sympatyczna 01","street":"FILARETÓW","latitude":"51.230975000000","longitude":"22.527327780000"},{"id":"5332","name":"Sympatyczna 02","street":"FILARETÓW","latitude":"51.230694440000","longitude":"22.527608330000"},{"id":"3391","name":"Szczygla 01","street":"GRABSKIEGO","latitude":"51.230133330000","longitude":"22.597080560000"},{"id":"9101","name":"Szerokie - drukarnia 01","street":"SZEROKIE","latitude":"51.246519440000","longitude":"22.475083330000"},{"id":"9111","name":"Szerokie - posesja 101 01","street":"DĄBROWICA","latitude":"51.246800000000","longitude":"22.472277780000"},{"id":"6341","name":"Szerokie 01","street":"NAŁĘCZOWSKA","latitude":"51.255050000000","longitude":"22.482377780000"},{"id":"6342","name":"Szerokie 02","street":"NAŁĘCZOWSKA","latitude":"51.255050000000","longitude":"22.483894440000"},{"id":"1262","name":"Szewska 02","street":"WODOPOJNA","latitude":"51.250841670000","longitude":"22.566552780000"},{"id":"3351","name":"Szklarniana 01","street":"GŁUSKA","latitude":"51.205330560000","longitude":"22.596519440000"},{"id":"3352","name":"Szklarniana 02","street":"WYZWOLENIA","latitude":"51.206733330000","longitude":"22.597922220000"},{"id":"3354","name":"Szklarniana 04","street":"GŁUSKA","latitude":"51.206452780000","longitude":"22.596238890000"},{"id":"5191","name":"Szkoła muzyczna 01","street":"MUZYCZNA","latitude":"51.237470524127","longitude":"22.554899454117"},{"id":"5192","name":"Szkoła muzyczna 02","street":"MUZYCZNA","latitude":"51.237940729918","longitude":"22.554910182953"},{"id":"5611","name":"Szmaragdowa 01","street":"JANA PAWŁA II","latitude":"51.227608330000","longitude":"22.519752780000"},{"id":"5612","name":"Szmaragdowa 02","street":"JANA PAWŁA II","latitude":"51.227327780000","longitude":"22.519191670000"},{"id":"1492","name":"Szpital Dziecięcy 02","street":"FIJAŁKOWSKIEGO","latitude":"51.260760083869","longitude":"22.559115886688"},{"id":"4211","name":"Szpital Kolejowy 01","street":"KRUCZKOWSKIEGO","latitude":"51.214869440000","longitude":"22.570594440000"},{"id":"3791","name":"Szpital Neuropsychiatryczny 01","street":"ABRAMOWICKA","latitude":"51.203750964498","longitude":"22.586013078690"},{"id":"3792","name":"Szpital Neuropsychiatryczny 02","street":"ABRAMOWICKA","latitude":"51.205552474086","longitude":"22.587053775788"},{"id":"5731","name":"Szpital Wojewódzki 01","street":"AL. KRAŚNICKA","latitude":"51.239225000000","longitude":"22.499325000000"},{"id":"5732","name":"Szpital Wojewódzki 02","street":"AL. KRAŚNICKA","latitude":"51.239786110000","longitude":"22.501122220000"},{"id":"1941","name":"Szwedzka 01","street":"AL. SMORAWIŃSKIEGO","latitude":"51.262344440000","longitude":"22.571436110000"},{"id":"1942","name":"Szwedzka 02","street":"AL. SMORAWIŃSKIEGO","latitude":"51.262063890000","longitude":"22.571436110000"},{"id":"6291","name":"Ślężan NŻ 01","street":"ŚLĘŻAN","latitude":"51.257886462468","longitude":"22.487061023712"},{"id":"6292","name":"Ślężan NŻ 02","street":"ŚLĘŻAN","latitude":"51.257141171509","longitude":"22.487865686417"},{"id":"1531","name":"Śliwińskiego 01","street":"CHOINY","latitude":"51.273961110000","longitude":"22.556172220000"},{"id":"1532","name":"Śliwińskiego 02","street":"CHOINY","latitude":"51.272838890000","longitude":"22.556452780000"},{"id":"7861","name":"Świdniczek 01","street":"ŚWIDNICZEK","latitude":"51.258896490000","longitude":"22.649448940000"},{"id":"7862","name":"Świdniczek 02","street":"ŚWIDNICZEK","latitude":"51.259445640000","longitude":"22.647506400000"},{"id":"8401","name":"Świdnik - Helikopter 01","street":"ŚWIDNIK","latitude":"51.218360000000","longitude":"22.692040000000"},{"id":"8402","name":"Świdnik - Helikopter 02","street":"ŚWIDNIK","latitude":"51.218260000000","longitude":"22.692310000000"},{"id":"8461","name":"Świdnik - Racławicka II 01","street":"ŚWIDNIK","latitude":"51.215950000000","longitude":"22.692490000000"},{"id":"7912","name":"Świdnik Duży - Leśniczówka 02","street":"ŚWIDNIK DUŻY","latitude":"51.253063560000","longitude":"22.704171070000"},{"id":"7901","name":"Świdnik Duży Pierwszy 01","street":"ŚWIDNIK DUŻY","latitude":"51.253898590000","longitude":"22.693057160000"},{"id":"7902","name":"Świdnik Duży Pierwszy 02","street":"ŚWIDNIK DUŻY","latitude":"51.254174270000","longitude":"22.690842530000"},{"id":"7892","name":"Świdnik Mały - szkoła 02","street":"ŚWIDNIK MAŁY","latitude":"51.255285680000","longitude":"22.680557860000"},{"id":"7881","name":"Świdnik Mały 01","street":"ŚWIDNIK MAŁY","latitude":"51.255841430000","longitude":"22.675283180000"},{"id":"7882","name":"Świdnik Mały 02","street":"ŚWIDNIK MAŁY","latitude":"51.256114310000","longitude":"22.673617110000"},{"id":"7891","name":"Świdnik Mały-szkoła 01","street":"ŚWIDNIK MAŁY","latitude":"51.255606262481","longitude":"22.680531442166"},{"id":"8291","name":"Świdnik stadion 01","street":"ŚWIDNIK","latitude":"51.224510000000","longitude":"22.695200000000"},{"id":"8292","name":"Świdnik stadion 02","street":"ŚWIDNIK","latitude":"51.224510000000","longitude":"22.695200000000"},{"id":"8294","name":"Świdnik stadion 04","street":"ŚWIDNIK","latitude":"51.224329687451","longitude":"22.694395780564"},{"id":"4101","name":"Świętochowskiego 01","street":"ZEMBORZYCKA","latitude":"51.211783330000","longitude":"22.574522220000"},{"id":"4102","name":"Świętochowskiego 02","street":"ZEMBORZYCKA","latitude":"51.210941670000","longitude":"22.573680560000"},{"id":"4601","name":"Tama 01","street":"ŻEGLARSKA","latitude":"51.195116670000","longitude":"22.535297220000"},{"id":"4602","name":"Tama 02","street":"ŻEGLARSKA","latitude":"51.194836110000","longitude":"22.532377780000"},{"id":"6731","name":"Tarasowa 01","street":"WILLOWA","latitude":"51.264869440000","longitude":"22.521155560000"},{"id":"6732","name":"Tarasowa 02","street":"WILLOWA","latitude":"51.264027780000","longitude":"22.523680560000"},{"id":"1951","name":"Tarasy Zamkowe 01","street":"AL. UNII LUBELSKIEJ","latitude":"51.249738334789","longitude":"22.574388384819"},{"id":"1953","name":"Tarasy Zamkowe 03","street":"AL. TYSIĄCLECIA","latitude":"51.250594177677","longitude":"22.576292753220"},{"id":"2211","name":"Targ Pod Zamkiem 01","street":"AL. UNII LUBELSKIEJ","latitude":"51.245958330000","longitude":"22.573119440000"},{"id":"2212","name":"Targ Pod Zamkiem 02","street":"AL. UNII LUBELSKIEJ","latitude":"51.247361110000","longitude":"22.574522220000"},{"id":"3411","name":"Targi Lublin 01","street":"AL. PIŁSUDSKIEGO","latitude":"51.235858330000","longitude":"22.565991670000"},{"id":"3412","name":"Targi Lublin 02","street":"AL. PIŁSUDSKIEGO","latitude":"51.235297220000","longitude":"22.567788890000"},{"id":"3413","name":"Targi Lublin 03","street":"LUBELSKIEGO LIPCA 80","latitude":"51.234702929800","longitude":"22.568042278290"},{"id":"3414","name":"Targi Lublin 04","street":"LUBELSKIEGO LIPCA 80","latitude":"51.235345000000","longitude":"22.569211000000"},{"id":"2501","name":"Tatarska 01","street":"KALINOWSZCZYZNA","latitude":"51.251683330000","longitude":"22.585577780000"},{"id":"2502","name":"Tatarska 02","street":"KALINOWSZCZYZNA","latitude":"51.251683330000","longitude":"22.586700000000"},{"id":"2541","name":"Tokarska 01","street":"MEŁGIEWSKA","latitude":"51.245419000000","longitude":"22.620800000000"},{"id":"2542","name":"Tokarska 02","street":"MEŁGIEWSKA","latitude":"51.245019000000","longitude":"22.623319000000"},{"id":"9792","name":"Tomaszowice - kościół 02","street":"TOMASZOWICE","latitude":"51.278138978065","longitude":"22.371768951416"},{"id":"9793","name":"Tomaszowice - kościół 03","street":"TOMASZOWICE","latitude":"51.277558445199","longitude":"22.370508313179"},{"id":"9761","name":"Tomaszowice - Lipy NŻ 01","street":"TOMASZOWICE","latitude":"51.270561272663","longitude":"22.385931015015"},{"id":"9762","name":"Tomaszowice - Lipy NŻ 02","street":"TOMASZOWICE","latitude":"51.269681936287","longitude":"22.387250661850"},{"id":"9771","name":"Tomaszowice - sklep NŻ 01","street":"TOMASZOWICE","latitude":"51.276353732203","longitude":"22.372058629990"},{"id":"2171","name":"Trześniowska 01","street":"NIEPODLEGŁOŚCI","latitude":"51.262063890000","longitude":"22.589225000000"},{"id":"2172","name":"Trześniowska 02","street":"NIEPODLEGŁOŚCI","latitude":"51.262063890000","longitude":"22.589225000000"},{"id":"7641","name":"Turka - Dębowa 01","street":"TURKA","latitude":"51.276486110000","longitude":"22.664027780000"},{"id":"7642","name":"Turka - Dębowa 02","street":"TURKA","latitude":"51.277047220000","longitude":"22.663747220000"},{"id":"7652","name":"Turka - os. Borek 02","street":"TURKA","latitude":"51.273119440000","longitude":"22.666272220000"},{"id":"7631","name":"Turka 01","street":"TURKA","latitude":"51.278450000000","longitude":"22.659258330000"},{"id":"7632","name":"Turka 02","street":"TURKA","latitude":"51.278169440000","longitude":"22.657855560000"},{"id":"2311","name":"Turystyczna 01","street":"TURYSTYCZNA","latitude":"51.253927780000","longitude":"22.603366670000"},{"id":"2312","name":"Turystyczna 02","street":"TURYSTYCZNA","latitude":"51.253647220000","longitude":"22.601963890000"},{"id":"2314","name":"Turystyczna 04","street":"TURYSTYCZNA","latitude":"51.254488890000","longitude":"22.604488890000"},{"id":"2301","name":"Turystyczna Leclerc 01","street":"TURYSTYCZNA","latitude":"51.251402780000","longitude":"22.597922220000"},{"id":"2302","name":"Turystyczna Leclerc 02","street":"TURYSTYCZNA","latitude":"51.251683330000","longitude":"22.597922220000"},{"id":"2551","name":"Tyszowiecka 01","street":"MEŁGIEWSKA","latitude":"51.244297000000","longitude":"22.627547000000"},{"id":"2552","name":"Tyszowiecka 02","street":"MEŁGIEWSKA","latitude":"51.244275000000","longitude":"22.628169440000"},{"id":"5291","name":"UMCS 01","street":"SOWIŃSKIEGO","latitude":"51.246222000000","longitude":"22.539229000000"},{"id":"5292","name":"UMCS 02","street":"SOWIŃSKIEGO","latitude":"51.244871000000","longitude":"22.539602000000"},{"id":"1821","name":"Unicka 01","street":"AL. SPÓŁDZIELCZOŚCI PRACY","latitude":"51.258697220000","longitude":"22.572558330000"},{"id":"1822","name":"Unicka 02","street":"LUBARTOWSKA","latitude":"51.258136110000","longitude":"22.571716670000"},{"id":"1823","name":"Unicka 03","street":"OBYWATELSKA","latitude":"51.258697220000","longitude":"22.570875000000"},{"id":"1824","name":"Unicka 04","street":"UNICKA","latitude":"51.258289317416","longitude":"22.572559118271"},{"id":"2201","name":"Unii Lubelskiej 01","street":"AL. UNII LUBELSKIEJ","latitude":"51.249886110000","longitude":"22.574241670000"},{"id":"9212","name":"Uniszowice - działki 02","street":"UNISZOWICE","latitude":"51.254769440000","longitude":"22.452805560000"},{"id":"9081","name":"Uniszowice - kapliczka NŻ","street":"UNISZOWICE","latitude":"51.242635807004","longitude":"22.451945543289"},{"id":"9141","name":"Uniszowice - sklep meblowy 01","street":"UNISZOWICE","latitude":"51.240908330000","longitude":"22.445958330000"},{"id":"9202","name":"Uniszowice - stawy 02","street":"UNISZOWICE","latitude":"51.251683330000","longitude":"22.442591670000"},{"id":"9192","name":"Uniszowice 02","street":"UNISZOWICE","latitude":"51.249325000000","longitude":"22.431536110000"},{"id":"9301","name":"Urodzajna 01","street":"DĄBROWICA","latitude":"51.261222220000","longitude":"22.466272220000"},{"id":"9302","name":"Urodzajna 02","street":"DĄBROWICA","latitude":"51.260941670000","longitude":"22.466552780000"},{"id":"2161","name":"Ustronie 01","street":"PONIKWODA","latitude":"51.264308330000","longitude":"22.584455560000"},{"id":"2162","name":"Ustronie 02","street":"PONIKWODA","latitude":"51.264027780000","longitude":"22.585577780000"},{"id":"3032","name":"Vetterów 02","street":"VETTERÓW","latitude":"51.221413471630","longitude":"22.645976543427"},{"id":"3034","name":"Vetterów 04","street":"MORITZA","latitude":"51.221460000000","longitude":"22.646640000000"},{"id":"3042","name":"Vetterów II 02","street":"VETTERÓW","latitude":"51.217910000000","longitude":"22.651920000000"},{"id":"2151","name":"Walecznych - cmentarz 01","street":"WALECZNYCH","latitude":"51.263186110000","longitude":"22.580975000000"},{"id":"2152","name":"Walecznych - cmentarz 02","street":"WALECZNYCH","latitude":"51.263186110000","longitude":"22.580694440000"},{"id":"1931","name":"Walecznych 01","street":"PODZAMCZE","latitude":"51.255611110000","longitude":"22.575363890000"},{"id":"1932","name":"Walecznych 02","street":"PODZAMCZE","latitude":"51.255330560000","longitude":"22.575083330000"},{"id":"2721","name":"Walentynowicz NŻ 01","street":"CHEMICZNA","latitude":"51.236419440000","longitude":"22.612905560000"},{"id":"2722","name":"Walentynowicz NŻ 02","street":"CHEMICZNA","latitude":"51.236700000000","longitude":"22.613747220000"},{"id":"4611","name":"Wapowskiego NŻ 01","street":"NAŁKOWSKICH","latitude":"51.203740000000","longitude":"22.543300000000"},{"id":"4612","name":"Wapowskiego NŻ 02","street":"NAŁKOWSKICH","latitude":"51.204000000000","longitude":"22.543530000000"},{"id":"6302","name":"Wądolna 02","street":"WĄDOLNA","latitude":"51.262042413020","longitude":"22.483381032944"},{"id":"4741","name":"Wąwozowa 01","street":"NADBYSTRZYCKA","latitude":"51.222277780000","longitude":"22.538383330000"},{"id":"4742","name":"Wąwozowa 02","street":"NADBYSTRZYCKA","latitude":"51.221997220000","longitude":"22.538663890000"},{"id":"5821","name":"Wertera 01","street":"JUDYMA","latitude":"51.240066670000","longitude":"22.488944440000"},{"id":"5822","name":"Wertera 02","street":"JUDYMA","latitude":"51.240066670000","longitude":"22.489225000000"},{"id":"2242","name":"Wesoła 02","street":"RUSAŁKA","latitude":"51.240049879623","longitude":"22.566491961479"},{"id":"1761","name":"Węglarza 01","street":"WĘGLARZA","latitude":"51.269319000000","longitude":"22.583389000000"},{"id":"1762","name":"Węglarza 02","street":"WĘGLARZA","latitude":"51.269678000000","longitude":"22.581589000000"},{"id":"1763","name":"Węglarza 03","street":"STRZEMBOSZA","latitude":"51.270279349856","longitude":"22.582579851151"},{"id":"1764","name":"Węglarza 04","street":"WALECZNYCH","latitude":"51.269262399644","longitude":"22.582166790962"},{"id":"5792","name":"Węglin - centrum handlowe 02","street":"GĘSIA","latitude":"51.229261300197","longitude":"22.479169964791"},{"id":"5761","name":"Węglin 01","street":"AL. KRAŚNICKA","latitude":"51.231255560000","longitude":"22.481816670000"},{"id":"5762","name":"Węglin 02","street":"AL. KRAŚNICKA","latitude":"51.231536110000","longitude":"22.482938890000"},{"id":"5763","name":"Węglin 03","street":"AL. KRAŚNICKA","latitude":"51.230030000000","longitude":"22.480670000000"},{"id":"5591","name":"Węglinek 01","street":"AL. KRAŚNICKA","latitude":"51.227248000000","longitude":"22.474067000000"},{"id":"5592","name":"Węglinek 02","street":"AL. KRAŚNICKA","latitude":"51.228169440000","longitude":"22.476205560000"},{"id":"5594","name":"Węglinek 04","street":"JANA PAWŁA II","latitude":"51.227288000000","longitude":"22.475365000000"},{"id":"1232","name":"Wieniawa - stadion 02","street":"LESZCZYŃSKIEGO","latitude":"51.251122220000","longitude":"22.544275000000"},{"id":"5201","name":"Wiercieńskiego 01","street":"GŁĘBOKA","latitude":"51.240908330000","longitude":"22.546519440000"},{"id":"5202","name":"Wiercieńskiego 02","street":"GŁĘBOKA","latitude":"51.240347220000","longitude":"22.547641670000"},{"id":"5651","name":"Wiklinowa 01","street":"ORKANA","latitude":"51.232377780000","longitude":"22.507013890000"},{"id":"5652","name":"Wiklinowa 02","street":"ORKANA","latitude":"51.232377780000","longitude":"22.505891670000"},{"id":"3311","name":"Wilcza 01","street":"DŁUGA","latitude":"51.224802780000","longitude":"22.585858330000"},{"id":"3312","name":"Wilcza 02","street":"DŁUGA","latitude":"51.224802780000","longitude":"22.586419440000"},{"id":"2871","name":"Wilhelma Hessa 01","street":"RATAJA","latitude":"51.234090000000","longitude":"22.637660000000"},{"id":"2911","name":"Witosa Carrefour 01","street":"WYLOTOWA","latitude":"51.233894440000","longitude":"22.601402780000"},{"id":"2912","name":"Witosa Carrefour 02","street":"AL. WITOSA","latitude":"51.232938890000","longitude":"22.606452780000"},{"id":"2931","name":"Witosa Felicity 01","street":"AL. WITOSA","latitude":"51.231816670000","longitude":"22.607855560000"},{"id":"2932","name":"Witosa Felicity 02","street":"AL. WITOSA","latitude":"51.230694440000","longitude":"22.612625000000"},{"id":"2902","name":"Witosa Makro 02","street":"WYLOTOWA","latitude":"51.235016670000","longitude":"22.600841670000"},{"id":"6101","name":"Wojciechowska - zespół szkół 01","street":"WOJCIECHOWSKA","latitude":"51.247080560000","longitude":"22.509538890000"},{"id":"6102","name":"Wojciechowska - zespół szkół 02","street":"WOJCIECHOWSKA","latitude":"51.247080560000","longitude":"22.509538890000"},{"id":"5711","name":"Wojciechowska 01","street":"ZANA","latitude":"51.245677780000","longitude":"22.515150000000"},{"id":"5712","name":"Wojciechowska 02","street":"AL. KRAŚNICKA","latitude":"51.246238890000","longitude":"22.515711110000"},{"id":"5713","name":"Wojciechowska 03","street":"AL. KRAŚNICKA","latitude":"51.245958330000","longitude":"22.514308330000"},{"id":"5715","name":"Wojciechowska 05","street":"WOJCIECHOWSKA","latitude":"51.246519440000","longitude":"22.514869440000"},{"id":"6351","name":"Wola Sławińska 01","street":"NAŁĘCZOWSKA","latitude":"51.254769440000","longitude":"22.477047220000"},{"id":"6352","name":"Wola Sławińska 02","street":"NAŁĘCZOWSKA","latitude":"51.254488890000","longitude":"22.478169440000"},{"id":"3931","name":"Wólczańska 01","street":"ABRAMOWICKA","latitude":"51.184175000000","longitude":"22.586138890000"},{"id":"3932","name":"Wólczańska 02","street":"ABRAMOWICKA","latitude":"51.184455560000","longitude":"22.586419440000"},{"id":"7851","name":"Wólka - masarnia 01","street":"WÓLKA","latitude":"51.163895690000","longitude":"22.635561060000"},{"id":"7852","name":"Wólka - masarnia 02","street":"WÓLKA","latitude":"51.264172170000","longitude":"22.634725320000"},{"id":"7601","name":"Wólka 01","street":"WÓLKA","latitude":"51.267035000000","longitude":"22.634764000000"},{"id":"7602","name":"Wólka 02","street":"WÓLKA","latitude":"51.265991670000","longitude":"22.634175000000"},{"id":"7603","name":"Wólka 03","street":"WÓLKA","latitude":"51.266552780000","longitude":"22.635297220000"},{"id":"1631","name":"WSPA 01","street":"ZWIĄZKOWA","latitude":"51.269752780000","longitude":"22.568069440000"},{"id":"1632","name":"WSPA 02","street":"ZWIĄZKOWA","latitude":"51.269472220000","longitude":"22.568911110000"},{"id":"1732","name":"Wydział Farmaceutyczny 02","street":"CHODŹKI","latitude":"51.262344440000","longitude":"22.563466670000"},{"id":"3662","name":"Wygodna 02","street":"WYGODNA","latitude":"51.179291670000","longitude":"22.620594440000"},{"id":"3651","name":"Wygodna I 01","street":"WYGODNA","latitude":"51.185297220000","longitude":"22.607013890000"},{"id":"3652","name":"Wygodna I 02","street":"WYGODNA","latitude":"51.185858330000","longitude":"22.606452780000"},{"id":"4891","name":"Wykietówka 01","street":"OSMOLICKA","latitude":"51.146238890000","longitude":"22.508416670000"},{"id":"4892","name":"Wykietówka 02","street":"OSMOLICKA","latitude":"51.146238890000","longitude":"22.508697220000"},{"id":"7751","name":"Wyszyńskiego - cmentarz 01","street":"ŚWIDNIK","latitude":"51.199150000000","longitude":"22.692610000000"},{"id":"7752","name":"Wyszyńskiego - cmentarz 02","street":"ŚWIDNIK","latitude":"51.198640000000","longitude":"22.691900000000"},{"id":"7761","name":"Wyszyńskiego - Wiejska 01","street":"ŚWIDNIK","latitude":"51.205090000000","longitude":"22.694770000000"},{"id":"7762","name":"Wyszyńskiego - Wiejska 02","street":"ŚWIDNIK","latitude":"51.204010000000","longitude":"22.694520000000"},{"id":"3731","name":"Wyścigowa 01","street":"KUNICKIEGO","latitude":"51.221436110000","longitude":"22.576486110000"},{"id":"3732","name":"Wyścigowa 02","street":"KUNICKIEGO","latitude":"51.222985832000","longitude":"22.575745583000"},{"id":"3734","name":"Wyścigowa 04","street":"DYWIZJONU 303","latitude":"51.223377000000","longitude":"22.575938000000"},{"id":"6902","name":"Wytwórnia Szczepionek 02","street":"GŁÓWNA","latitude":"51.263747220000","longitude":"22.485016670000"},{"id":"2361","name":"Zabytkowa 01","street":"ZABYTKOWA","latitude":"51.273119440000","longitude":"22.630133330000"},{"id":"2362","name":"Zabytkowa 02","street":"ZABYTKOWA","latitude":"51.273119440000","longitude":"22.630133330000"},{"id":"2582","name":"Zadębie 02","street":"MEŁGIEWSKA","latitude":"51.243152780000","longitude":"22.659258330000"},{"id":"7511","name":"Zagrodna 01","street":"PLISZCZYŃSKA","latitude":"51.293152780000","longitude":"22.628169440000"},{"id":"7512","name":"Zagrodna 02","street":"PLISZCZYŃSKA","latitude":"51.293433330000","longitude":"22.627888890000"},{"id":"4531","name":"Zakłady Tytoniowe 01","street":"WROTKOWSKA","latitude":"51.220875000000","longitude":"22.551963890000"},{"id":"4532","name":"Zakłady Tytoniowe 02","street":"WROTKOWSKA","latitude":"51.221155560000","longitude":"22.554208330000"},{"id":"2231","name":"Zamojska 01","street":"ZAMOJSKA","latitude":"51.242030560000","longitude":"22.568630560000"},{"id":"2232","name":"Zamojska 02","street":"ZAMOJSKA","latitude":"51.241469440000","longitude":"22.569191670000"},{"id":"5441","name":"Zana Leclerc 01","street":"BOHATERÓW M. CASSINO","latitude":"51.240627780000","longitude":"22.517508330000"},{"id":"5442","name":"Zana Leclerc 02","street":"ZANA","latitude":"51.241188890000","longitude":"22.520033330000"},{"id":"5443","name":"Zana Leclerc 03","street":"ZANA","latitude":"51.240627780000","longitude":"22.520594440000"},{"id":"5444","name":"Zana Leclerc 04","street":"ZANA","latitude":"51.241992000000","longitude":"22.517519000000"},{"id":"5421","name":"Zana ZUS 01","street":"ZANA","latitude":"51.241469440000","longitude":"22.569472220000"},{"id":"5423","name":"Zana ZUS 03","street":"ZANA","latitude":"51.238813956494","longitude":"22.526226639748"},{"id":"6421","name":"Zbożowa 01","street":"ZBOŻOWA","latitude":"51.275644440000","longitude":"22.506452780000"},{"id":"6422","name":"Zbożowa 02","street":"ZBOŻOWA","latitude":"51.275083330000","longitude":"22.504488890000"},{"id":"6424","name":"Zbożowa 04","street":"ZBOŻOWA","latitude":"51.275083330000","longitude":"22.504488890000"},{"id":"3641","name":"Zdrowa 01","street":"WYGODNA","latitude":"51.188944440000","longitude":"22.599044440000"},{"id":"3642","name":"Zdrowa 02","street":"WYGODNA","latitude":"51.189225000000","longitude":"22.598763890000"},{"id":"1183","name":"Zelwerowicza 03 NŻ","street":"ZELWEROWICZA","latitude":"51.277610000000","longitude":"22.542810000000"},{"id":"1181","name":"Zelwerowicza NŻ 01","street":"KONCERTOWA","latitude":"51.277729585708","longitude":"22.544106245041"},{"id":"1182","name":"Zelwerowicza NŻ 02","street":"KONCERTOWA","latitude":"51.277165826328","longitude":"22.543559074402"},{"id":"1184","name":"Zelwerowicza NŻ 04","street":"ZELWEROWICZA","latitude":"51.277259786705","longitude":"22.544653415680"},{"id":"4981","name":"Zemborzyce - kościół 01","street":"KRĘŻNICKA","latitude":"51.173680560000","longitude":"22.509258330000"},{"id":"4982","name":"Zemborzyce - kościół 02","street":"PSZCZELA","latitude":"51.173680560000","longitude":"22.508136110000"},{"id":"4983","name":"Zemborzyce - kościół 03","street":"PSZCZELA","latitude":"51.173680560000","longitude":"22.508136110000"},{"id":"8721","name":"Zemborzyce Dolne 01","street":"ZEMBORZYCE DOLNE","latitude":"51.196519440000","longitude":"22.441469440000"},{"id":"8722","name":"Zemborzyce Dolne 02","street":"ZEMBORZYCE DOLNE","latitude":"51.196331000000","longitude":"22.442148000000"},{"id":"4921","name":"Zemborzyce Górne 01","street":"KRĘŻNICKA","latitude":"51.155891670000","longitude":"22.481255560000"},{"id":"4924","name":"Zemborzyce Górne 04","street":"KRĘŻNICKA","latitude":"51.155900000000","longitude":"22.481781000000"},{"id":"4922","name":"Zemborzyce Górne I 02","street":"KRĘŻNICKA","latitude":"51.155611110000","longitude":"22.481816670000"},{"id":"8851","name":"Zemborzyce Podleśne - sklep 01","street":"ZEMBORZYCE PODLEŚNE","latitude":"51.192872220000","longitude":"22.478730560000"},{"id":"8852","name":"Zemborzyce Podleśne - sklep 02","street":"ZEMBORZYCE PODLEŚNE","latitude":"51.192872220000","longitude":"22.478730560000"},{"id":"8831","name":"Zemborzyce Podleśne - skrzyżowanie 01","street":"ZEMBORZYCE PODLEŚNE","latitude":"51.187415000000","longitude":"22.487821000000"},{"id":"8832","name":"Zemborzyce Podleśne - skrzyżowanie 02","street":"ZEMBORZYCE PODLEŚNE","latitude":"51.186138890000","longitude":"22.489505560000"},{"id":"8862","name":"Zemborzyce Podleśne 02","street":"ZEMBORZYCE PODLEŚNE","latitude":"51.198483330000","longitude":"22.484455560000"},{"id":"8841","name":"Zemborzyce Podleśne I 01","street":"ZEMBORZYCE PODLEŚNE","latitude":"51.189505560000","longitude":"22.484175000000"},{"id":"8842","name":"Zemborzyce Podleśne I 02","street":"ZEMBORZYCE PODLEŚNE","latitude":"51.189505560000","longitude":"22.484175000000"},{"id":"8741","name":"Zemborzyce Tereszyńskie 01","street":"ZEMBORZYCE TERESZ.","latitude":"51.183613890000","longitude":"22.463186110000"},{"id":"8742","name":"Zemborzyce Tereszyńskie 02","street":"ZEMBORZYCE TERESZ.","latitude":"51.183613890000","longitude":"22.463186110000"},{"id":"8731","name":"Zemborzyce Tereszyńskie PKS 01","street":"ZEMBORZYCE TERESZ.","latitude":"51.191750000000","longitude":"22.449605560000"},{"id":"8732","name":"Zemborzyce Tereszyńskie PKS 02","street":"ZEMBORZYCE TERESZ.","latitude":"51.191750000000","longitude":"22.449605560000"},{"id":"8751","name":"Zemborzyce Wojciechowskie 01","street":"ZEMBORZYCE WOJCIECH.","latitude":"51.176751000000","longitude":"22.474867000000"},{"id":"8752","name":"Zemborzyce Wojciechowskie 02","street":"ZEMBORZYCE WOJCIECH.","latitude":"51.176751000000","longitude":"22.474867000000"},{"id":"4111","name":"Zemborzycka - zespół szkół 01","street":"ZEMBORZYCKA","latitude":"51.207855560000","longitude":"22.568350000000"},{"id":"4112","name":"Zemborzycka - zespół szkół 02","street":"ZEMBORZYCKA","latitude":"51.207575000000","longitude":"22.568069440000"},{"id":"3611","name":"Zorza - fabryka 01","street":"ZORZA","latitude":"51.203647220000","longitude":"22.605050000000"},{"id":"3612","name":"Zorza - fabryka 02","street":"ZORZA","latitude":"51.203647220000","longitude":"22.604488890000"},{"id":"3621","name":"Zorza - sklep 01","street":"ZORZA","latitude":"51.204208330000","longitude":"22.612905560000"},{"id":"3622","name":"Zorza - sklep 02","street":"ZORZA","latitude":"51.204208330000","longitude":"22.612625000000"},{"id":"3501","name":"Zorza 01","street":"GŁUSKA","latitude":"51.201963890000","longitude":"22.594275000000"},{"id":"3502","name":"Zorza 02","street":"GŁUSKA","latitude":"51.203366670000","longitude":"22.594836110000"},{"id":"3503","name":"Zorza 03","street":"ZORZA","latitude":"51.203047000000","longitude":"22.595253000000"},{"id":"5411","name":"ZUS 01","street":"FILARETÓW","latitude":"51.236980560000","longitude":"22.529011110000"},{"id":"5412","name":"ZUS 02","street":"FILARETÓW","latitude":"51.238663890000","longitude":"22.530694440000"},{"id":"5414","name":"ZUS 04","street":"ZANA","latitude":"51.237261110000","longitude":"22.530975000000"},{"id":"5416","name":"ZUS 06","street":"ZANA","latitude":"51.238383330000","longitude":"22.528450000000"},{"id":"1861","name":"Związkowa 01","street":"AL. SPÓŁDZIELCZOŚCI PRACY","latitude":"51.270033330000","longitude":"22.573400000000"},{"id":"1862","name":"Związkowa 02","street":"AL. SPÓŁDZIELCZOŚCI PRACY","latitude":"51.269191670000","longitude":"22.572838890000"},{"id":"1863","name":"Związkowa 03","street":"ZWIĄZKOWA","latitude":"51.269752780000","longitude":"22.572558330000"},{"id":"1865","name":"Związkowa 05","street":"WĘGLARZA","latitude":"51.269578000000","longitude":"22.573939000000"},{"id":"5743","name":"Zwycięska","street":"ZWYCIĘSKA","latitude":"51.236809000000","longitude":"22.496539000000"},{"id":"5741","name":"Zwycięska 01","street":"AL. KRAŚNICKA","latitude":"51.237541670000","longitude":"22.495397220000"},{"id":"5742","name":"Zwycięska 02","street":"AL. KRAŚNICKA","latitude":"51.237822220000","longitude":"22.497080560000"},{"id":"4591","name":"Żeglarska 01","street":"ŻEGLARSKA","latitude":"51.195116670000","longitude":"22.540347220000"},{"id":"4592","name":"Żeglarska 02","street":"NAŁKOWSKICH","latitude":"51.195677780000","longitude":"22.538944440000"},{"id":"4593","name":"Żeglarska 03","street":"ŻEGLARSKA","latitude":"51.195218000000","longitude":"22.547110000000"},{"id":"4594","name":"Żeglarska 04","street":"ŻEGLARSKA","latitude":"51.195116670000","longitude":"22.541750000000"},{"id":"4595","name":"Żeglarska 05","street":"ŻEGLARSKA","latitude":"51.195218000000","longitude":"22.547110000000"},{"id":"4621","name":"Żeglarska II NŻ 01","street":"ŻEGLARSKA","latitude":"51.195246619102","longitude":"22.540190219879"},{"id":"4622","name":"Żeglarska II NŻ 02","street":"ŻEGLARSKA","latitude":"51.195058362868","longitude":"22.541831731796"},{"id":"3241","name":"Żelazna 01","street":"DYWIZJONU 303","latitude":"51.226792000000","longitude":"22.582037000000"},{"id":"3242","name":"Żelazna 02","street":"DYWIZJONU 303","latitude":"51.226003000000","longitude":"22.581279000000"},{"id":"1341","name":"Żelazowej Woli 01","street":"AL. KOMPOZYTORÓW POLSKICH","latitude":"51.266947220000","longitude":"22.546519440000"},{"id":"8281","name":"Żwirki i Wigury II NŻ 01","street":"ŚWIDNIK","latitude":"51.226130392046","longitude":"22.683119773865"},{"id":"8282","name":"Żwirki i Wigury II NŻ 02","street":"ŚWIDNIK","latitude":"51.225660065554","longitude":"22.685136795044"},{"id":"1601","name":"Żywnego 01","street":"ELSNERA","latitude":"51.268350000000","longitude":"22.553647220000"},{"id":"1602","name":"Żywnego 02","street":"ELSNERA","latitude":"51.267788890000","longitude":"22.551402780000"}]